{
  "source": "http://data.gov.uk/dataset/naptan",
  "license": "http://www.nationalarchives.gov.uk/doc/open-government-licence/",
  "date": 1558955000609,
  "stations": [
    {
      "label": "Abbey Wood (ABW)",
      "crs": "ABW",
      "lat": "51.4907722473",
      "lon": "0.1203255728"
    },
    {
      "label": "Aber (ABE)",
      "crs": "ABE",
      "lat": "51.5749588013",
      "lon": "-3.2298388481"
    },
    {
      "label": "Abercynon (ACY)",
      "crs": "ACY",
      "lat": "51.6447067261",
      "lon": "-3.3270008564"
    },
    {
      "label": "Aberdare (ABA)",
      "crs": "ABA",
      "lat": "51.7150573730",
      "lon": "-3.4430992603"
    },
    {
      "label": "Aberdeen (ABD)",
      "crs": "ABD",
      "lat": "57.1430473328",
      "lon": "-2.0974805355"
    },
    {
      "label": "Aberdour (AUR)",
      "crs": "AUR",
      "lat": "56.0545806885",
      "lon": "-3.3005564213"
    },
    {
      "label": "Aberdovey (AVY)",
      "crs": "AVY",
      "lat": "52.5439720154",
      "lon": "-4.0570807457"
    },
    {
      "label": "Abererch (ABH)",
      "crs": "ABH",
      "lat": "52.8986015320",
      "lon": "-4.3741960526"
    },
    {
      "label": "Abergavenny (AGV)",
      "crs": "AGV",
      "lat": "51.8166923523",
      "lon": "-3.0096642971"
    },
    {
      "label": "Abergele & Pensarn (AGL)",
      "crs": "AGL",
      "lat": "53.2945899963",
      "lon": "-3.5826320648"
    },
    {
      "label": "Aberystwyth (AYW)",
      "crs": "AYW",
      "lat": "52.4140586853",
      "lon": "-4.0819087029"
    },
    {
      "label": "Accrington (ACR)",
      "crs": "ACR",
      "lat": "53.7532043457",
      "lon": "-2.3700070381"
    },
    {
      "label": "Achanalt (AAT)",
      "crs": "AAT",
      "lat": "57.6098136902",
      "lon": "-4.9142165184"
    },
    {
      "label": "Achnasheen (ACN)",
      "crs": "ACN",
      "lat": "57.5791015625",
      "lon": "-5.0723676682"
    },
    {
      "label": "Achnashellach (ACH)",
      "crs": "ACH",
      "lat": "57.4820556641",
      "lon": "-5.3330631256"
    },
    {
      "label": "Acklington (ACK)",
      "crs": "ACK",
      "lat": "55.3070983887",
      "lon": "-1.6518374681"
    },
    {
      "label": "Acle (ACL)",
      "crs": "ACL",
      "lat": "52.6347045898",
      "lon": "1.5439302921"
    },
    {
      "label": "Acocks Green (ACG)",
      "crs": "ACG",
      "lat": "52.4493293762",
      "lon": "-1.8189847469"
    },
    {
      "label": "Acton Bridge (ACB)",
      "crs": "ACB",
      "lat": "53.2659835815",
      "lon": "-2.6026663780"
    },
    {
      "label": "Acton Central (ACC)",
      "crs": "ACC",
      "lat": "51.5087738037",
      "lon": "-0.2636165321"
    },
    {
      "label": "Acton Main Line (AML)",
      "crs": "AML",
      "lat": "51.5169296265",
      "lon": "-0.2676304877"
    },
    {
      "label": "Adderley Park (ADD)",
      "crs": "ADD",
      "lat": "52.4830932617",
      "lon": "-1.8559399843"
    },
    {
      "label": "Addiewell (ADW)",
      "crs": "ADW",
      "lat": "55.8434028625",
      "lon": "-3.6065173149"
    },
    {
      "label": "Addlestone (ASN)",
      "crs": "ASN",
      "lat": "51.3730468750",
      "lon": "-0.4844489098"
    },
    {
      "label": "Adisham (ADM)",
      "crs": "ADM",
      "lat": "51.2412033081",
      "lon": "1.1991009712"
    },
    {
      "label": "Adlington (Cheshire) (ADC)",
      "crs": "ADC",
      "lat": "53.3195686340",
      "lon": "-2.1335606575"
    },
    {
      "label": "Adlington (Lancashire) (ADL)",
      "crs": "ADL",
      "lat": "53.6129455566",
      "lon": "-2.6030611992"
    },
    {
      "label": "Adwick (AWK)",
      "crs": "AWK",
      "lat": "53.5730247498",
      "lon": "-1.1814750433"
    },
    {
      "label": "Aigburth (AIG)",
      "crs": "AIG",
      "lat": "53.3645820618",
      "lon": "-2.9271607399"
    },
    {
      "label": "Ainsdale (ANS)",
      "crs": "ANS",
      "lat": "53.6018333435",
      "lon": "-3.0426692963"
    },
    {
      "label": "Aintree (AIN)",
      "crs": "AIN",
      "lat": "53.4740104675",
      "lon": "-2.9566648006"
    },
    {
      "label": "Airbles (AIR)",
      "crs": "AIR",
      "lat": "55.7828254700",
      "lon": "-3.9941787720"
    },
    {
      "label": "Airdrie (ADR)",
      "crs": "ADR",
      "lat": "55.8639717102",
      "lon": "-3.9828975201"
    },
    {
      "label": "Albany Park (AYP)",
      "crs": "AYP",
      "lat": "51.4358024597",
      "lon": "0.1264117509"
    },
    {
      "label": "Albrighton (ALB)",
      "crs": "ALB",
      "lat": "52.6379547119",
      "lon": "-2.2689063549"
    },
    {
      "label": "Alderley Edge (ALD)",
      "crs": "ALD",
      "lat": "53.3037948608",
      "lon": "-2.2368004322"
    },
    {
      "label": "Aldermaston (AMT)",
      "crs": "AMT",
      "lat": "51.4020118713",
      "lon": "-1.1387703419"
    },
    {
      "label": "Aldershot (AHT)",
      "crs": "AHT",
      "lat": "51.2464179993",
      "lon": "-0.7598604560"
    },
    {
      "label": "Aldrington (AGT)",
      "crs": "AGT",
      "lat": "50.8363647461",
      "lon": "-0.1812096983"
    },
    {
      "label": "Alexandra Palace (AAP)",
      "crs": "AAP",
      "lat": "51.5982894897",
      "lon": "-0.1201430783"
    },
    {
      "label": "Alexandra Parade (AXP)",
      "crs": "AXP",
      "lat": "55.8636627197",
      "lon": "-4.2114195824"
    },
    {
      "label": "Alexandria (ALX)",
      "crs": "ALX",
      "lat": "55.9850730896",
      "lon": "-4.5774693489"
    },
    {
      "label": "Alfreton (ALF)",
      "crs": "ALF",
      "lat": "53.1004562378",
      "lon": "-1.3696886301"
    },
    {
      "label": "Allens West (ALW)",
      "crs": "ALW",
      "lat": "54.5241165161",
      "lon": "-1.3634260893"
    },
    {
      "label": "Alloa (ALO)",
      "crs": "ALO",
      "lat": "56.1177825928",
      "lon": "-3.7900493145"
    },
    {
      "label": "Alness (ASS)",
      "crs": "ASS",
      "lat": "57.6943778992",
      "lon": "-4.2497253418"
    },
    {
      "label": "Alnmouth (ALM)",
      "crs": "ALM",
      "lat": "55.3924102783",
      "lon": "-1.6368796825"
    },
    {
      "label": "Alresford (Essex) (ALR)",
      "crs": "ALR",
      "lat": "51.8540039062",
      "lon": "0.9967047572"
    },
    {
      "label": "Alsager (ASG)",
      "crs": "ASG",
      "lat": "53.0927543640",
      "lon": "-2.2986121178"
    },
    {
      "label": "Althorne (ALN)",
      "crs": "ALN",
      "lat": "51.6478767395",
      "lon": "0.7524991632"
    },
    {
      "label": "Althorpe (ALP)",
      "crs": "ALP",
      "lat": "53.5852890015",
      "lon": "-0.7325863838"
    },
    {
      "label": "Altnabreac (ABC)",
      "crs": "ABC",
      "lat": "58.3883247375",
      "lon": "-3.7052681446"
    },
    {
      "label": "Alton (AON)",
      "crs": "AON",
      "lat": "51.1519660950",
      "lon": "-0.9669202566"
    },
    {
      "label": "Altrincham (ALT)",
      "crs": "ALT",
      "lat": "53.3874549866",
      "lon": "-2.3472814560"
    },
    {
      "label": "Alvechurch (ALV)",
      "crs": "ALV",
      "lat": "52.3460845947",
      "lon": "-1.9676599503"
    },
    {
      "label": "Ambergate (AMB)",
      "crs": "AMB",
      "lat": "53.0605392456",
      "lon": "-1.4806934595"
    },
    {
      "label": "Amberley (AMY)",
      "crs": "AMY",
      "lat": "50.8966674805",
      "lon": "-0.5419890285"
    },
    {
      "label": "Amersham (AMR)",
      "crs": "AMR",
      "lat": "51.6742057800",
      "lon": "-0.6075901389"
    },
    {
      "label": "Ammanford (AMF)",
      "crs": "AMF",
      "lat": "51.7959785461",
      "lon": "-3.9967658520"
    },
    {
      "label": "Ancaster (ANC)",
      "crs": "ANC",
      "lat": "52.9879341125",
      "lon": "-0.5356151462"
    },
    {
      "label": "Anderston (AND)",
      "crs": "AND",
      "lat": "55.8598632812",
      "lon": "-4.2719297409"
    },
    {
      "label": "Andover (ADV)",
      "crs": "ADV",
      "lat": "51.2115440369",
      "lon": "-1.4922399521"
    },
    {
      "label": "Anerley (ANZ)",
      "crs": "ANZ",
      "lat": "51.4130554199",
      "lon": "-0.0659143254"
    },
    {
      "label": "Angel Road (AGR)",
      "crs": "AGR",
      "lat": "51.6124114990",
      "lon": "-0.0487841666"
    },
    {
      "label": "Angmering (ANG)",
      "crs": "ANG",
      "lat": "50.8165702820",
      "lon": "-0.4893893898"
    },
    {
      "label": "Annan (ANN)",
      "crs": "ANN",
      "lat": "54.9838371277",
      "lon": "-3.2625842094"
    },
    {
      "label": "Anniesland (ANL)",
      "crs": "ANL",
      "lat": "55.8894958496",
      "lon": "-4.3216409683"
    },
    {
      "label": "Ansdell & Fairhaven (AFV)",
      "crs": "AFV",
      "lat": "53.7415733337",
      "lon": "-2.9930565357"
    },
    {
      "label": "Appleby (APP)",
      "crs": "APP",
      "lat": "54.5803527832",
      "lon": "-2.4866924286"
    },
    {
      "label": "Appledore (Kent) (APD)",
      "crs": "APD",
      "lat": "51.0332336426",
      "lon": "0.8163555264"
    },
    {
      "label": "Appleford (APF)",
      "crs": "APF",
      "lat": "51.6396446228",
      "lon": "-1.2421391010"
    },
    {
      "label": "Appley Bridge (APB)",
      "crs": "APB",
      "lat": "53.5790481567",
      "lon": "-2.7188789845"
    },
    {
      "label": "Apsley (APS)",
      "crs": "APS",
      "lat": "51.7325248718",
      "lon": "-0.4629243612"
    },
    {
      "label": "Arbroath (ARB)",
      "crs": "ARB",
      "lat": "56.5595664978",
      "lon": "-2.5889363289"
    },
    {
      "label": "Ardgay (ARD)",
      "crs": "ARD",
      "lat": "57.8810119629",
      "lon": "-4.3625779152"
    },
    {
      "label": "Ardlui (AUI)",
      "crs": "AUI",
      "lat": "56.3019485474",
      "lon": "-4.7216429710"
    },
    {
      "label": "Ardrossan Harbour (ADS)",
      "crs": "ADS",
      "lat": "55.6398620605",
      "lon": "-4.8211050034"
    },
    {
      "label": "Ardrossan South Beach (ASB)",
      "crs": "ASB",
      "lat": "55.6414070129",
      "lon": "-4.8012056351"
    },
    {
      "label": "Ardrossan Town (ADN)",
      "crs": "ADN",
      "lat": "55.6396942139",
      "lon": "-4.8126697540"
    },
    {
      "label": "Ardwick (ADK)",
      "crs": "ADK",
      "lat": "53.4713630676",
      "lon": "-2.2138836384"
    },
    {
      "label": "Argyle Street (AGS)",
      "crs": "AGS",
      "lat": "55.8573074341",
      "lon": "-4.2506713867"
    },
    {
      "label": "Arisaig (ARG)",
      "crs": "ARG",
      "lat": "56.9125213623",
      "lon": "-5.8390712738"
    },
    {
      "label": "Arlesey (ARL)",
      "crs": "ARL",
      "lat": "52.0260429382",
      "lon": "-0.2663165033"
    },
    {
      "label": "Armadale (ARM)",
      "crs": "ARM",
      "lat": "55.8849983215",
      "lon": "-3.6979999542"
    },
    {
      "label": "Armathwaite (AWT)",
      "crs": "AWT",
      "lat": "54.8091125488",
      "lon": "-2.7716820240"
    },
    {
      "label": "Arnside (ARN)",
      "crs": "ARN",
      "lat": "54.2021102905",
      "lon": "-2.8277661800"
    },
    {
      "label": "Arram (ARR)",
      "crs": "ARR",
      "lat": "53.8845825195",
      "lon": "-0.4268572032"
    },
    {
      "label": "Arrochar & Tarbet (ART)",
      "crs": "ART",
      "lat": "56.2039566040",
      "lon": "-4.7227568626"
    },
    {
      "label": "Arundel (ARU)",
      "crs": "ARU",
      "lat": "50.8482017517",
      "lon": "-0.5461713672"
    },
    {
      "label": "Ascot (ACT)",
      "crs": "ACT",
      "lat": "51.4062461853",
      "lon": "-0.6758305430"
    },
    {
      "label": "Ascott-under-Wychwood (AUW)",
      "crs": "AUW",
      "lat": "51.8673400879",
      "lon": "-1.5640581846"
    },
    {
      "label": "Ash (ASH)",
      "crs": "ASH",
      "lat": "51.2495956421",
      "lon": "-0.7128047347"
    },
    {
      "label": "Ash Vale (AHV)",
      "crs": "AHV",
      "lat": "51.2722473145",
      "lon": "-0.7216479778"
    },
    {
      "label": "Ashburys (ABY)",
      "crs": "ABY",
      "lat": "53.4713973999",
      "lon": "-2.1942987442"
    },
    {
      "label": "Ashchurch for Tewkesbury (ASC)",
      "crs": "ASC",
      "lat": "51.9991683960",
      "lon": "-2.1090574265"
    },
    {
      "label": "Ashfield (ASF)",
      "crs": "ASF",
      "lat": "55.8889083862",
      "lon": "-4.2492065430"
    },
    {
      "label": "Ashford (Surrey) (AFS)",
      "crs": "AFS",
      "lat": "51.4365119934",
      "lon": "-0.4680622518"
    },
    {
      "label": "Ashford International (AFK)",
      "crs": "AFK",
      "lat": "51.1437072754",
      "lon": "0.8762136698"
    },
    {
      "label": "Ashley (ASY)",
      "crs": "ASY",
      "lat": "53.3560104370",
      "lon": "-2.3410158157"
    },
    {
      "label": "Ashtead (AHD)",
      "crs": "AHD",
      "lat": "51.3178825378",
      "lon": "-0.3081473410"
    },
    {
      "label": "Ashton-under-Lyne (AHN)",
      "crs": "AHN",
      "lat": "53.4912834167",
      "lon": "-2.0934040546"
    },
    {
      "label": "Ashurst (AHS)",
      "crs": "AHS",
      "lat": "51.1286544800",
      "lon": "0.1526619643"
    },
    {
      "label": "Ashurst New Forest (ANF)",
      "crs": "ANF",
      "lat": "50.8898391724",
      "lon": "-1.5266405344"
    },
    {
      "label": "Ashwell & Morden (AWM)",
      "crs": "AWM",
      "lat": "52.0307807922",
      "lon": "-0.1097811162"
    },
    {
      "label": "Askam (ASK)",
      "crs": "ASK",
      "lat": "54.1890449524",
      "lon": "-3.2045223713"
    },
    {
      "label": "Aslockton (ALK)",
      "crs": "ALK",
      "lat": "52.9513931274",
      "lon": "-0.8985433578"
    },
    {
      "label": "Aspatria (ASP)",
      "crs": "ASP",
      "lat": "54.7593231201",
      "lon": "-3.3317375183"
    },
    {
      "label": "Aspley Guise (APG)",
      "crs": "APG",
      "lat": "52.0212478638",
      "lon": "-0.6323270202"
    },
    {
      "label": "Aston (AST)",
      "crs": "AST",
      "lat": "52.5051383972",
      "lon": "-1.8717794418"
    },
    {
      "label": "Atherstone (ATH)",
      "crs": "ATH",
      "lat": "52.5789833069",
      "lon": "-1.5528123379"
    },
    {
      "label": "Atherton (ATN)",
      "crs": "ATN",
      "lat": "53.5290145874",
      "lon": "-2.4781777859"
    },
    {
      "label": "Attadale (ATT)",
      "crs": "ATT",
      "lat": "57.3947639465",
      "lon": "-5.4564809799"
    },
    {
      "label": "Attenborough (ATB)",
      "crs": "ATB",
      "lat": "52.9063682556",
      "lon": "-1.2312691212"
    },
    {
      "label": "Attleborough (ATL)",
      "crs": "ATL",
      "lat": "52.5142631531",
      "lon": "1.0226798058"
    },
    {
      "label": "Auchinleck (AUK)",
      "crs": "AUK",
      "lat": "55.4702644348",
      "lon": "-4.2953467369"
    },
    {
      "label": "Audley End (AUD)",
      "crs": "AUD",
      "lat": "52.0044517517",
      "lon": "0.2071620971"
    },
    {
      "label": "Aughton Park (AUG)",
      "crs": "AUG",
      "lat": "53.5544891357",
      "lon": "-2.8950781822"
    },
    {
      "label": "Aviemore (AVM)",
      "crs": "AVM",
      "lat": "57.1890525818",
      "lon": "-3.8283340931"
    },
    {
      "label": "Avoncliff (AVF)",
      "crs": "AVF",
      "lat": "51.3396453857",
      "lon": "-2.2813394070"
    },
    {
      "label": "Avonmouth (AVN)",
      "crs": "AVN",
      "lat": "51.5001258850",
      "lon": "-2.6984214783"
    },
    {
      "label": "Axminster (AXM)",
      "crs": "AXM",
      "lat": "50.7785835266",
      "lon": "-3.0052280426"
    },
    {
      "label": "Aylesbury (AYS)",
      "crs": "AYS",
      "lat": "51.8138961792",
      "lon": "-0.8150949478"
    },
    {
      "label": "Aylesbury Vale Parkway (AVP)",
      "crs": "AVP",
      "lat": "51.8318672180",
      "lon": "-0.8612040281"
    },
    {
      "label": "Aylesford (AYL)",
      "crs": "AYL",
      "lat": "51.3013153076",
      "lon": "0.4661759734"
    },
    {
      "label": "Aylesham (AYH)",
      "crs": "AYH",
      "lat": "51.2272567749",
      "lon": "1.2094647884"
    },
    {
      "label": "Ayr (AYR)",
      "crs": "AYR",
      "lat": "55.4582061768",
      "lon": "-4.6268205643"
    },
    {
      "label": "Bache (BAC)",
      "crs": "BAC",
      "lat": "53.2093353271",
      "lon": "-2.8923606873"
    },
    {
      "label": "Baglan (BAJ)",
      "crs": "BAJ",
      "lat": "51.6155395508",
      "lon": "-3.8111622334"
    },
    {
      "label": "Bagshot (BAG)",
      "crs": "BAG",
      "lat": "51.3643684387",
      "lon": "-0.6886599064"
    },
    {
      "label": "Baildon (BLD)",
      "crs": "BLD",
      "lat": "53.8496971130",
      "lon": "-1.7537145615"
    },
    {
      "label": "Baillieston (BIO)",
      "crs": "BIO",
      "lat": "55.8447036743",
      "lon": "-4.1144976616"
    },
    {
      "label": "Balcombe (BAB)",
      "crs": "BAB",
      "lat": "51.0555114746",
      "lon": "-0.1369324327"
    },
    {
      "label": "Baldock (BDK)",
      "crs": "BDK",
      "lat": "51.9928817749",
      "lon": "-0.1875583977"
    },
    {
      "label": "Balham (BAL)",
      "crs": "BAL",
      "lat": "51.4432258606",
      "lon": "-0.1524212211"
    },
    {
      "label": "Balloch (BHC)",
      "crs": "BHC",
      "lat": "56.0029144287",
      "lon": "-4.5834698677"
    },
    {
      "label": "Balmossie (BSI)",
      "crs": "BSI",
      "lat": "56.4745559692",
      "lon": "-2.8389520645"
    },
    {
      "label": "Bamber Bridge (BMB)",
      "crs": "BMB",
      "lat": "53.7267875671",
      "lon": "-2.6607692242"
    },
    {
      "label": "Bamford (BAM)",
      "crs": "BAM",
      "lat": "53.3390159607",
      "lon": "-1.6890821457"
    },
    {
      "label": "Banavie (BNV)",
      "crs": "BNV",
      "lat": "56.8432884216",
      "lon": "-5.0954160690"
    },
    {
      "label": "Banbury (BAN)",
      "crs": "BAN",
      "lat": "52.0603141785",
      "lon": "-1.3281304836"
    },
    {
      "label": "Bangor (Gwynedd) (BNG)",
      "crs": "BNG",
      "lat": "53.2223014832",
      "lon": "-4.1358914375"
    },
    {
      "label": "Bank Hall (BAH)",
      "crs": "BAH",
      "lat": "53.4378013611",
      "lon": "-2.9874649048"
    },
    {
      "label": "Banstead (BAD)",
      "crs": "BAD",
      "lat": "51.3293495178",
      "lon": "-0.2131580561"
    },
    {
      "label": "Barassie (BSS)",
      "crs": "BSS",
      "lat": "55.5610466003",
      "lon": "-4.6511292458"
    },
    {
      "label": "Stadium Of Light (STI)",
      "crs": "STI",
      "lat": "54.9182014465",
      "lon": "-1.3828999996"
    },
    {
      "label": "Bardon Mill (BLL)",
      "crs": "BLL",
      "lat": "54.9744949341",
      "lon": "-2.3464977741"
    },
    {
      "label": "Bare Lane (BAR)",
      "crs": "BAR",
      "lat": "54.0753288269",
      "lon": "-2.8359403610"
    },
    {
      "label": "Bargeddie (BGI)",
      "crs": "BGI",
      "lat": "55.8517227173",
      "lon": "-4.0717420578"
    },
    {
      "label": "Bargoed (BGD)",
      "crs": "BGD",
      "lat": "51.6923065186",
      "lon": "-3.2296893597"
    },
    {
      "label": "Barking (BKG)",
      "crs": "BKG",
      "lat": "51.5400428772",
      "lon": "0.0807933807"
    },
    {
      "label": "Barlaston (BRT)",
      "crs": "BRT",
      "lat": "52.9428863525",
      "lon": "-2.1681127548"
    },
    {
      "label": "Barming (BMG)",
      "crs": "BMG",
      "lat": "51.2848930359",
      "lon": "0.4789637625"
    },
    {
      "label": "Barmouth (BRM)",
      "crs": "BRM",
      "lat": "52.7229118347",
      "lon": "-4.0566086769"
    },
    {
      "label": "Barnehurst (BNH)",
      "crs": "BNH",
      "lat": "51.4648475647",
      "lon": "0.1608769149"
    },
    {
      "label": "Barnes (BNS)",
      "crs": "BNS",
      "lat": "51.4670677185",
      "lon": "-0.2407244593"
    },
    {
      "label": "Barnes Bridge (BNI)",
      "crs": "BNI",
      "lat": "51.4717330933",
      "lon": "-0.2520642579"
    },
    {
      "label": "Barnetby (BTB)",
      "crs": "BTB",
      "lat": "53.5742416382",
      "lon": "-0.4097056687"
    },
    {
      "label": "Barnham (BAA)",
      "crs": "BAA",
      "lat": "50.8308944702",
      "lon": "-0.6396796703"
    },
    {
      "label": "Barnhill (BNL)",
      "crs": "BNL",
      "lat": "55.8778266907",
      "lon": "-4.2234163284"
    },
    {
      "label": "Barnsley (BNY)",
      "crs": "BNY",
      "lat": "53.5546264648",
      "lon": "-1.4770784378"
    },
    {
      "label": "Barnstaple (BNP)",
      "crs": "BNP",
      "lat": "51.0739593506",
      "lon": "-4.0631532669"
    },
    {
      "label": "Barnt Green (BTG)",
      "crs": "BTG",
      "lat": "52.3610954285",
      "lon": "-1.9924665689"
    },
    {
      "label": "Barrhead (BRR)",
      "crs": "BRR",
      "lat": "55.8037376404",
      "lon": "-4.3972802162"
    },
    {
      "label": "Barrhill (BRL)",
      "crs": "BRL",
      "lat": "55.0969963074",
      "lon": "-4.7817797661"
    },
    {
      "label": "Barrow Haven (BAV)",
      "crs": "BAV",
      "lat": "53.6971435547",
      "lon": "-0.3914428055"
    },
    {
      "label": "Barrow upon Soar (BWS)",
      "crs": "BWS",
      "lat": "52.7502822876",
      "lon": "-1.1495689154"
    },
    {
      "label": "Barrow-in-Furness (BIF)",
      "crs": "BIF",
      "lat": "54.1190032959",
      "lon": "-3.2261292934"
    },
    {
      "label": "Barry (BRY)",
      "crs": "BRY",
      "lat": "51.3967819214",
      "lon": "-3.2849974632"
    },
    {
      "label": "Barry Docks (BYD)",
      "crs": "BYD",
      "lat": "51.4024391174",
      "lon": "-3.2607157230"
    },
    {
      "label": "Barry Island (BYI)",
      "crs": "BYI",
      "lat": "51.3924140930",
      "lon": "-3.2733762264"
    },
    {
      "label": "Barry Links (BYL)",
      "crs": "BYL",
      "lat": "56.4931411743",
      "lon": "-2.7454352379"
    },
    {
      "label": "Barton-on-Humber (BAU)",
      "crs": "BAU",
      "lat": "53.6888389587",
      "lon": "-0.4432511926"
    },
    {
      "label": "Basildon (BSO)",
      "crs": "BSO",
      "lat": "51.5681114197",
      "lon": "0.4567956924"
    },
    {
      "label": "Basingstoke (BSK)",
      "crs": "BSK",
      "lat": "51.2683563232",
      "lon": "-1.0872590542"
    },
    {
      "label": "Bat & Ball (BBL)",
      "crs": "BBL",
      "lat": "51.2897567749",
      "lon": "0.1942395270"
    },
    {
      "label": "Bath Spa (BTH)",
      "crs": "BTH",
      "lat": "51.3776817322",
      "lon": "-2.3570342064"
    },
    {
      "label": "Bathgate (BHG)",
      "crs": "BHG",
      "lat": "55.8991127014",
      "lon": "-3.6409685612"
    },
    {
      "label": "Batley (BTL)",
      "crs": "BTL",
      "lat": "53.7091484070",
      "lon": "-1.6227287054"
    },
    {
      "label": "Battersby (BTT)",
      "crs": "BTT",
      "lat": "54.4576911926",
      "lon": "-1.0929790735"
    },
    {
      "label": "Battersea Park (BAK)",
      "crs": "BAK",
      "lat": "51.4773330688",
      "lon": "-0.1481629610"
    },
    {
      "label": "Battle (BAT)",
      "crs": "BAT",
      "lat": "50.9129104614",
      "lon": "0.4947070181"
    },
    {
      "label": "Battlesbridge (BLB)",
      "crs": "BLB",
      "lat": "51.6248664856",
      "lon": "0.5658034086"
    },
    {
      "label": "Bayford (BAY)",
      "crs": "BAY",
      "lat": "51.7577171326",
      "lon": "-0.0956035554"
    },
    {
      "label": "Beaconsfield (BCF)",
      "crs": "BCF",
      "lat": "51.6112899780",
      "lon": "-0.6438176632"
    },
    {
      "label": "Bearley (BER)",
      "crs": "BER",
      "lat": "52.2444229126",
      "lon": "-1.7502638102"
    },
    {
      "label": "Bearsden (BRN)",
      "crs": "BRN",
      "lat": "55.9171447754",
      "lon": "-4.3328967094"
    },
    {
      "label": "Bearsted (BSD)",
      "crs": "BSD",
      "lat": "51.2758178711",
      "lon": "0.5775887370"
    },
    {
      "label": "Beasdale (BSL)",
      "crs": "BSL",
      "lat": "56.8995285034",
      "lon": "-5.7637929916"
    },
    {
      "label": "Beaulieu Road (BEU)",
      "crs": "BEU",
      "lat": "50.8550376892",
      "lon": "-1.5047588348"
    },
    {
      "label": "Beauly (BEL)",
      "crs": "BEL",
      "lat": "57.4782066345",
      "lon": "-4.4699459076"
    },
    {
      "label": "Bebington (BEB)",
      "crs": "BEB",
      "lat": "53.3576736450",
      "lon": "-3.0036427975"
    },
    {
      "label": "Beccles (BCC)",
      "crs": "BCC",
      "lat": "52.4585418701",
      "lon": "1.5695080757"
    },
    {
      "label": "Beckenham Hill (BEC)",
      "crs": "BEC",
      "lat": "51.4248199463",
      "lon": "-0.0165093560"
    },
    {
      "label": "Beckenham Junction (BKJ)",
      "crs": "BKJ",
      "lat": "51.4115104675",
      "lon": "-0.0271520000"
    },
    {
      "label": "Bedford (BDM)",
      "crs": "BDM",
      "lat": "52.1361999512",
      "lon": "-0.4794444442"
    },
    {
      "label": "Bedford St Johns (BSJ)",
      "crs": "BSJ",
      "lat": "52.1294937134",
      "lon": "-0.4675027728"
    },
    {
      "label": "Bedhampton (BDH)",
      "crs": "BDH",
      "lat": "50.8539428711",
      "lon": "-0.9958236814"
    },
    {
      "label": "Bedminster (BMT)",
      "crs": "BMT",
      "lat": "51.4400863647",
      "lon": "-2.5941569805"
    },
    {
      "label": "Bedworth (BEH)",
      "crs": "BEH",
      "lat": "52.4793128967",
      "lon": "-1.4673911333"
    },
    {
      "label": "Bedwyn (BDW)",
      "crs": "BDW",
      "lat": "51.3796348572",
      "lon": "-1.5987952948"
    },
    {
      "label": "Beeston (BEE)",
      "crs": "BEE",
      "lat": "52.9207763672",
      "lon": "-1.2076617479"
    },
    {
      "label": "Bekesbourne (BKS)",
      "crs": "BKS",
      "lat": "51.2613601685",
      "lon": "1.1367179155"
    },
    {
      "label": "Belle Vue (BLV)",
      "crs": "BLV",
      "lat": "53.4621620178",
      "lon": "-2.1803994179"
    },
    {
      "label": "Bellgrove (BLG)",
      "crs": "BLG",
      "lat": "55.8571205139",
      "lon": "-4.2254290581"
    },
    {
      "label": "Bellingham (BGM)",
      "crs": "BGM",
      "lat": "51.4338798523",
      "lon": "-0.0204332061"
    },
    {
      "label": "Bellshill (BLH)",
      "crs": "BLH",
      "lat": "55.8165512085",
      "lon": "-4.0251779556"
    },
    {
      "label": "Belmont (BLM)",
      "crs": "BLM",
      "lat": "51.3441390991",
      "lon": "-0.1994872093"
    },
    {
      "label": "Belper (BLP)",
      "crs": "BLP",
      "lat": "53.0245895386",
      "lon": "-1.4826161861"
    },
    {
      "label": "Beltring (BEG)",
      "crs": "BEG",
      "lat": "51.2047042847",
      "lon": "0.4034985304"
    },
    {
      "label": "Belvedere (BVD)",
      "crs": "BVD",
      "lat": "51.4919891357",
      "lon": "0.1520760059"
    },
    {
      "label": "Bempton (BEM)",
      "crs": "BEM",
      "lat": "54.1282958984",
      "lon": "-0.1804276258"
    },
    {
      "label": "Ben Rhydding (BEY)",
      "crs": "BEY",
      "lat": "53.9261779785",
      "lon": "-1.7974278927"
    },
    {
      "label": "Benfleet (BEF)",
      "crs": "BEF",
      "lat": "51.5439491272",
      "lon": "0.5617229939"
    },
    {
      "label": "Bentham (BEN)",
      "crs": "BEN",
      "lat": "54.1157989502",
      "lon": "-2.5109128952"
    },
    {
      "label": "Bentley (Hampshire) (BTY)",
      "crs": "BTY",
      "lat": "51.1812286377",
      "lon": "-0.8681309223"
    },
    {
      "label": "Bentley (South Yorkshire) (BYK)",
      "crs": "BYK",
      "lat": "53.5436897278",
      "lon": "-1.1515562534"
    },
    {
      "label": "Bere Alston (BAS)",
      "crs": "BAS",
      "lat": "50.4855880737",
      "lon": "-4.2003984451"
    },
    {
      "label": "Bere Ferrers (BFE)",
      "crs": "BFE",
      "lat": "50.4508552551",
      "lon": "-4.1818814278"
    },
    {
      "label": "Berkhamsted (BKM)",
      "crs": "BKM",
      "lat": "51.7631378174",
      "lon": "-0.5620051622"
    },
    {
      "label": "Berkswell (BKW)",
      "crs": "BKW",
      "lat": "52.3958969116",
      "lon": "-1.6428449154"
    },
    {
      "label": "Berney Arms (BYA)",
      "crs": "BYA",
      "lat": "52.5898094177",
      "lon": "1.6303927898"
    },
    {
      "label": "Berry Brow (BBW)",
      "crs": "BBW",
      "lat": "53.6210556030",
      "lon": "-1.7934337854"
    },
    {
      "label": "Berrylands (BRS)",
      "crs": "BRS",
      "lat": "51.3990478516",
      "lon": "-0.2807142735"
    },
    {
      "label": "Berwick (Sussex) (BRK)",
      "crs": "BRK",
      "lat": "50.8403739929",
      "lon": "0.1660264283"
    },
    {
      "label": "Berwick-upon-Tweed (BWK)",
      "crs": "BWK",
      "lat": "55.7748260498",
      "lon": "-2.0111269951"
    },
    {
      "label": "Bescar Lane (BES)",
      "crs": "BES",
      "lat": "53.6235542297",
      "lon": "-2.9146831036"
    },
    {
      "label": "Bescot Stadium (BSC)",
      "crs": "BSC",
      "lat": "52.5627441406",
      "lon": "-1.9911043644"
    },
    {
      "label": "Betchworth (BTO)",
      "crs": "BTO",
      "lat": "51.2481880188",
      "lon": "-0.2669741511"
    },
    {
      "label": "Bethnal Green (BET)",
      "crs": "BET",
      "lat": "51.5244636536",
      "lon": "-0.0597548187"
    },
    {
      "label": "Betws-y-Coed (BYC)",
      "crs": "BYC",
      "lat": "53.0920867920",
      "lon": "-3.8008792400"
    },
    {
      "label": "Beverley (BEV)",
      "crs": "BEV",
      "lat": "53.8423042297",
      "lon": "-0.4238828719"
    },
    {
      "label": "Bexhill (BEX)",
      "crs": "BEX",
      "lat": "50.8410339355",
      "lon": "0.4770340919"
    },
    {
      "label": "Bexley (BXY)",
      "crs": "BXY",
      "lat": "51.4407997131",
      "lon": "0.1482291669"
    },
    {
      "label": "Bexleyheath (BXH)",
      "crs": "BXH",
      "lat": "51.4635543823",
      "lon": "0.1334607303"
    },
    {
      "label": "Bicester North (BCS)",
      "crs": "BCS",
      "lat": "51.9034919739",
      "lon": "-1.1503769159"
    },
    {
      "label": "Bicester Town (BIT)",
      "crs": "BIT",
      "lat": "51.8934936523",
      "lon": "-1.1480658054"
    },
    {
      "label": "Bickley (BKL)",
      "crs": "BKL",
      "lat": "51.4003906250",
      "lon": "0.0442555062"
    },
    {
      "label": "Bidston (BID)",
      "crs": "BID",
      "lat": "53.4091491699",
      "lon": "-3.0785703659"
    },
    {
      "label": "Biggleswade (BIW)",
      "crs": "BIW",
      "lat": "52.0846900940",
      "lon": "-0.2611833513"
    },
    {
      "label": "Bilbrook (BBK)",
      "crs": "BBK",
      "lat": "52.6237297058",
      "lon": "-2.1860918999"
    },
    {
      "label": "Billericay (BIC)",
      "crs": "BIC",
      "lat": "51.6288909912",
      "lon": "0.4186357558"
    },
    {
      "label": "Billingham (BIL)",
      "crs": "BIL",
      "lat": "54.6063232422",
      "lon": "-1.2785422802"
    },
    {
      "label": "Billingshurst (BIG)",
      "crs": "BIG",
      "lat": "51.0151939392",
      "lon": "-0.4502955973"
    },
    {
      "label": "Bingham (BIN)",
      "crs": "BIN",
      "lat": "52.9545745850",
      "lon": "-0.9520518184"
    },
    {
      "label": "Bingley (BIY)",
      "crs": "BIY",
      "lat": "53.8484115601",
      "lon": "-1.8369446993"
    },
    {
      "label": "Birchgrove (BCG)",
      "crs": "BCG",
      "lat": "51.5217399597",
      "lon": "-3.2034680843"
    },
    {
      "label": "Birchington-on-Sea (BCH)",
      "crs": "BCH",
      "lat": "51.3774986267",
      "lon": "1.3014240265"
    },
    {
      "label": "Birchwood (BWD)",
      "crs": "BWD",
      "lat": "53.4119606018",
      "lon": "-2.5280153751"
    },
    {
      "label": "Birkbeck (BIK)",
      "crs": "BIK",
      "lat": "51.4039001465",
      "lon": "-0.0562358722"
    },
    {
      "label": "Birkdale (BDL)",
      "crs": "BDL",
      "lat": "53.6335334778",
      "lon": "-3.0147156715"
    },
    {
      "label": "Birkenhead Central (BKC)",
      "crs": "BKC",
      "lat": "53.3889999390",
      "lon": "-3.0194165707"
    },
    {
      "label": "Birkenhead North (BKN)",
      "crs": "BKN",
      "lat": "53.4048423767",
      "lon": "-3.0574016571"
    },
    {
      "label": "Birkenhead Park (BKP)",
      "crs": "BKP",
      "lat": "53.3978195190",
      "lon": "-3.0391793251"
    },
    {
      "label": "Birmingham International (BHI)",
      "crs": "BHI",
      "lat": "52.4508132935",
      "lon": "-1.7258633375"
    },
    {
      "label": "Birmingham Moor Street (BMO)",
      "crs": "BMO",
      "lat": "52.4790878296",
      "lon": "-1.8924690485"
    },
    {
      "label": "Birmingham New Street (BHM)",
      "crs": "BHM",
      "lat": "52.4781951904",
      "lon": "-1.8983608484"
    },
    {
      "label": "Birmingham Snow Hill (BSW)",
      "crs": "BSW",
      "lat": "52.4835891724",
      "lon": "-1.8998209238"
    },
    {
      "label": "Bishop Auckland (BIA)",
      "crs": "BIA",
      "lat": "54.6574707031",
      "lon": "-1.6775653362"
    },
    {
      "label": "Bishopbriggs (BBG)",
      "crs": "BBG",
      "lat": "55.9038658142",
      "lon": "-4.2249064445"
    },
    {
      "label": "Bishops Lydeard (BIB)",
      "crs": "BIB",
      "lat": "51.0541305542",
      "lon": "-3.1934199333"
    },
    {
      "label": "Bishops Stortford (BIS)",
      "crs": "BIS",
      "lat": "51.8666954041",
      "lon": "0.1649086326"
    },
    {
      "label": "Bishopstone (BIP)",
      "crs": "BIP",
      "lat": "50.7801361084",
      "lon": "0.0827630460"
    },
    {
      "label": "Bishopton (BPT)",
      "crs": "BPT",
      "lat": "55.9021492004",
      "lon": "-4.5015668869"
    },
    {
      "label": "Bitterne (BTE)",
      "crs": "BTE",
      "lat": "50.9184455872",
      "lon": "-1.3769876957"
    },
    {
      "label": "Blackburn (BBN)",
      "crs": "BBN",
      "lat": "53.7465248108",
      "lon": "-2.4791274071"
    },
    {
      "label": "Blackheath (BKH)",
      "crs": "BKH",
      "lat": "51.4657630920",
      "lon": "0.0083023757"
    },
    {
      "label": "Blackhorse Road (BHO)",
      "crs": "BHO",
      "lat": "51.5862083435",
      "lon": "-0.0412458330"
    },
    {
      "label": "Blackpool North (BPN)",
      "crs": "BPN",
      "lat": "53.8219299316",
      "lon": "-3.0492808819"
    },
    {
      "label": "Blackpool Pleasure Beach (BPB)",
      "crs": "BPB",
      "lat": "53.7882461548",
      "lon": "-3.0538134575"
    },
    {
      "label": "Blackpool South (BPS)",
      "crs": "BPS",
      "lat": "53.7986221313",
      "lon": "-3.0490632057"
    },
    {
      "label": "Blackridge (BKR)",
      "crs": "BKR",
      "lat": "55.8810005188",
      "lon": "-3.7660000324"
    },
    {
      "label": "Blackrod (BLK)",
      "crs": "BLK",
      "lat": "53.5915374756",
      "lon": "-2.5695331097"
    },
    {
      "label": "Blackwater (BAW)",
      "crs": "BAW",
      "lat": "51.3318099976",
      "lon": "-0.7770226002"
    },
    {
      "label": "Blaenau Ffestiniog (BFF)",
      "crs": "BFF",
      "lat": "52.9945678711",
      "lon": "-3.9386024475"
    },
    {
      "label": "Blair Atholl (BLA)",
      "crs": "BLA",
      "lat": "56.7655296326",
      "lon": "-3.8502175808"
    },
    {
      "label": "Blairhill (BAI)",
      "crs": "BAI",
      "lat": "55.8665885925",
      "lon": "-4.0421662331"
    },
    {
      "label": "Blake Street (BKT)",
      "crs": "BKT",
      "lat": "52.6048965454",
      "lon": "-1.8449088335"
    },
    {
      "label": "Blakedown (BKD)",
      "crs": "BKD",
      "lat": "52.4061851501",
      "lon": "-2.1763551235"
    },
    {
      "label": "Blantyre (BLT)",
      "crs": "BLT",
      "lat": "55.7975502014",
      "lon": "-4.0864138603"
    },
    {
      "label": "Blaydon (BLO)",
      "crs": "BLO",
      "lat": "54.9657859802",
      "lon": "-1.7125873566"
    },
    {
      "label": "Bleasby (BSB)",
      "crs": "BSB",
      "lat": "53.0416908264",
      "lon": "-0.9424822927"
    },
    {
      "label": "Bletchley (BLY)",
      "crs": "BLY",
      "lat": "51.9953460693",
      "lon": "-0.7363161445"
    },
    {
      "label": "Bloxwich (BLX)",
      "crs": "BLX",
      "lat": "52.6182136536",
      "lon": "-2.0114769936"
    },
    {
      "label": "Bloxwich North (BWN)",
      "crs": "BWN",
      "lat": "52.6256752014",
      "lon": "-2.0191609859"
    },
    {
      "label": "Blundellsands & Crosby (BLN)",
      "crs": "BLN",
      "lat": "53.4876976013",
      "lon": "-3.0398678780"
    },
    {
      "label": "Blythe Bridge (BYB)",
      "crs": "BYB",
      "lat": "52.9681663513",
      "lon": "-2.0669596195"
    },
    {
      "label": "Bodmin Parkway (BOD)",
      "crs": "BOD",
      "lat": "50.4458541870",
      "lon": "-4.6629710197"
    },
    {
      "label": "Bodorgan (BOR)",
      "crs": "BOR",
      "lat": "53.2043190002",
      "lon": "-4.4180226326"
    },
    {
      "label": "Bognor Regis (BOG)",
      "crs": "BOG",
      "lat": "50.7865524292",
      "lon": "-0.6761790514"
    },
    {
      "label": "Bogston (BGS)",
      "crs": "BGS",
      "lat": "55.9370307922",
      "lon": "-4.7113900185"
    },
    {
      "label": "Bolton (BON)",
      "crs": "BON",
      "lat": "53.5741577148",
      "lon": "-2.4258296490"
    },
    {
      "label": "Bolton-on-Dearne (BTD)",
      "crs": "BTD",
      "lat": "53.5190162659",
      "lon": "-1.3122274876"
    },
    {
      "label": "Bookham (BKA)",
      "crs": "BKA",
      "lat": "51.2887382507",
      "lon": "-0.3840105236"
    },
    {
      "label": "Bootle (BOC)",
      "crs": "BOC",
      "lat": "54.2903556824",
      "lon": "-3.3949022293"
    },
    {
      "label": "Bootle New Strand (BNW)",
      "crs": "BNW",
      "lat": "53.4530181885",
      "lon": "-2.9953477383"
    },
    {
      "label": "Bootle Oriel Road (BOT)",
      "crs": "BOT",
      "lat": "53.4476242065",
      "lon": "-2.9952216148"
    },
    {
      "label": "Bordesley (BBS)",
      "crs": "BBS",
      "lat": "52.4718818665",
      "lon": "-1.8777648211"
    },
    {
      "label": "Borough Green & Wrotham (BRG)",
      "crs": "BRG",
      "lat": "51.2932167053",
      "lon": "0.3062601686"
    },
    {
      "label": "Borth (BRH)",
      "crs": "BRH",
      "lat": "52.4910392761",
      "lon": "-4.0501899719"
    },
    {
      "label": "Bosham (BOH)",
      "crs": "BOH",
      "lat": "50.8427352905",
      "lon": "-0.8474366665"
    },
    {
      "label": "Boston (BSN)",
      "crs": "BSN",
      "lat": "52.9781188965",
      "lon": "-0.0310022645"
    },
    {
      "label": "Botley (BOE)",
      "crs": "BOE",
      "lat": "50.9168014526",
      "lon": "-1.2588062286"
    },
    {
      "label": "Bottesford (BTF)",
      "crs": "BTF",
      "lat": "52.9450073242",
      "lon": "-0.7960148454"
    },
    {
      "label": "Bourne End (BNE)",
      "crs": "BNE",
      "lat": "51.5771179199",
      "lon": "-0.7104710340"
    },
    {
      "label": "Bournemouth (BMH)",
      "crs": "BMH",
      "lat": "50.7275276184",
      "lon": "-1.8639413118"
    },
    {
      "label": "Bournville (BRV)",
      "crs": "BRV",
      "lat": "52.4269714355",
      "lon": "-1.9264216423"
    },
    {
      "label": "Bow Brickhill (BWB)",
      "crs": "BWB",
      "lat": "52.0043106079",
      "lon": "-0.6960722804"
    },
    {
      "label": "Bowes Park (BOP)",
      "crs": "BOP",
      "lat": "51.6072769165",
      "lon": "-0.1197718307"
    },
    {
      "label": "Bowling (BWG)",
      "crs": "BWG",
      "lat": "55.9310684204",
      "lon": "-4.4938244820"
    },
    {
      "label": "Boxhill & Westhumble (BXW)",
      "crs": "BXW",
      "lat": "51.2540092468",
      "lon": "-0.3284784555"
    },
    {
      "label": "Bracknell (BCE)",
      "crs": "BCE",
      "lat": "51.4130935669",
      "lon": "-0.7517030239"
    },
    {
      "label": "Bradford Forster Square (BDQ)",
      "crs": "BDQ",
      "lat": "53.7969360352",
      "lon": "-1.7529610395"
    },
    {
      "label": "Bradford Interchange (BDI)",
      "crs": "BDI",
      "lat": "53.7910842896",
      "lon": "-1.7495951653"
    },
    {
      "label": "Bradford-on-Avon (BOA)",
      "crs": "BOA",
      "lat": "51.3449096680",
      "lon": "-2.2523398399"
    },
    {
      "label": "Brading (BDN)",
      "crs": "BDN",
      "lat": "50.6783561707",
      "lon": "-1.1387226582"
    },
    {
      "label": "Braintree (BTR)",
      "crs": "BTR",
      "lat": "51.8754043579",
      "lon": "0.5566986799"
    },
    {
      "label": "Braintree Freeport (BTP)",
      "crs": "BTP",
      "lat": "51.8690109253",
      "lon": "0.5674494505"
    },
    {
      "label": "Bramhall (BML)",
      "crs": "BML",
      "lat": "53.3599853516",
      "lon": "-2.1622366905"
    },
    {
      "label": "Bramley (Hampshire) (BMY)",
      "crs": "BMY",
      "lat": "51.3300781250",
      "lon": "-1.0609869957"
    },
    {
      "label": "Bramley (West Yorkshire) (BLE)",
      "crs": "BLE",
      "lat": "53.8059921265",
      "lon": "-1.6381080151"
    },
    {
      "label": "Brampton (Cumbria) (BMP)",
      "crs": "BMP",
      "lat": "54.9326362610",
      "lon": "-2.7038137913"
    },
    {
      "label": "Brampton (Suffolk) (BRP)",
      "crs": "BRP",
      "lat": "52.3954505920",
      "lon": "1.5438240767"
    },
    {
      "label": "Branchton (BCN)",
      "crs": "BCN",
      "lat": "55.9405860901",
      "lon": "-4.8035397530"
    },
    {
      "label": "Brandon (BND)",
      "crs": "BND",
      "lat": "52.4540290833",
      "lon": "0.6247339845"
    },
    {
      "label": "Branksome (BSM)",
      "crs": "BSM",
      "lat": "50.7275810242",
      "lon": "-1.9191977978"
    },
    {
      "label": "Braystones (BYS)",
      "crs": "BYS",
      "lat": "54.4395446777",
      "lon": "-3.5433747768"
    },
    {
      "label": "Bredbury (BDY)",
      "crs": "BDY",
      "lat": "53.4229660034",
      "lon": "-2.1098072529"
    },
    {
      "label": "Breich (BRC)",
      "crs": "BRC",
      "lat": "55.8273048401",
      "lon": "-3.6681177616"
    },
    {
      "label": "Brentford (BFD)",
      "crs": "BFD",
      "lat": "51.4878578186",
      "lon": "-0.3090643883"
    },
    {
      "label": "Brentwood (BRE)",
      "crs": "BRE",
      "lat": "51.6136474609",
      "lon": "0.3001535535"
    },
    {
      "label": "Bricket Wood (BWO)",
      "crs": "BWO",
      "lat": "51.7054290771",
      "lon": "-0.3591163158"
    },
    {
      "label": "Bridge of Allan (BEA)",
      "crs": "BEA",
      "lat": "56.1566200256",
      "lon": "-3.9572262764"
    },
    {
      "label": "Bridge of Orchy (BRO)",
      "crs": "BRO",
      "lat": "56.5158462524",
      "lon": "-4.7629771233"
    },
    {
      "label": "Bridgend (BGN)",
      "crs": "BGN",
      "lat": "51.5069770813",
      "lon": "-3.5752964020"
    },
    {
      "label": "Bridgeton (BDG)",
      "crs": "BDG",
      "lat": "55.8489303589",
      "lon": "-4.2260789871"
    },
    {
      "label": "Bridgwater (BWT)",
      "crs": "BWT",
      "lat": "51.1280746460",
      "lon": "-2.9902880192"
    },
    {
      "label": "Bridlington (BDT)",
      "crs": "BDT",
      "lat": "54.0841484070",
      "lon": "-0.1987191439"
    },
    {
      "label": "Brierfield (BRF)",
      "crs": "BRF",
      "lat": "53.8245506287",
      "lon": "-2.2369468212"
    },
    {
      "label": "Brigg (BGG)",
      "crs": "BGG",
      "lat": "53.5491638184",
      "lon": "-0.4861193597"
    },
    {
      "label": "Brighouse (BGH)",
      "crs": "BGH",
      "lat": "53.6982154846",
      "lon": "-1.7794396877"
    },
    {
      "label": "Brighton (BTN)",
      "crs": "BTN",
      "lat": "50.8289527893",
      "lon": "-0.1412251890"
    },
    {
      "label": "Brimsdown (BMD)",
      "crs": "BMD",
      "lat": "51.6552810669",
      "lon": "-0.0310397409"
    },
    {
      "label": "Brinnington (BNT)",
      "crs": "BNT",
      "lat": "53.4310340881",
      "lon": "-2.1308996677"
    },
    {
      "label": "Bristol Parkway (BPW)",
      "crs": "BPW",
      "lat": "51.5138359070",
      "lon": "-2.5426595211"
    },
    {
      "label": "Bristol Temple Meads (BRI)",
      "crs": "BRI",
      "lat": "51.4491424561",
      "lon": "-2.5813229084"
    },
    {
      "label": "Brithdir (BHD)",
      "crs": "BHD",
      "lat": "51.7103004456",
      "lon": "-3.2287299633"
    },
    {
      "label": "British Steel Redcar (RBS)",
      "crs": "RBS",
      "lat": "54.6098937988",
      "lon": "-1.1126682758"
    },
    {
      "label": "Briton Ferry (BNF)",
      "crs": "BNF",
      "lat": "51.6378936768",
      "lon": "-3.8192789555"
    },
    {
      "label": "Brixton (BRX)",
      "crs": "BRX",
      "lat": "51.4633026123",
      "lon": "-0.1141790077"
    },
    {
      "label": "Broad Green (BGE)",
      "crs": "BGE",
      "lat": "53.4061813354",
      "lon": "-2.8934662342"
    },
    {
      "label": "Broadbottom (BDB)",
      "crs": "BDB",
      "lat": "53.4409904480",
      "lon": "-2.0165150166"
    },
    {
      "label": "Broadstairs (BSR)",
      "crs": "BSR",
      "lat": "51.3606796265",
      "lon": "1.4335798025"
    },
    {
      "label": "Brockenhurst (BCU)",
      "crs": "BCU",
      "lat": "50.8168296814",
      "lon": "-1.5735425949"
    },
    {
      "label": "Brockholes (BHS)",
      "crs": "BHS",
      "lat": "53.5971679688",
      "lon": "-1.7702958584"
    },
    {
      "label": "Brockley (BCY)",
      "crs": "BCY",
      "lat": "51.4647483826",
      "lon": "-0.0378139354"
    },
    {
      "label": "Brockley Whins (BNR)",
      "crs": "BNR",
      "lat": "54.9594993591",
      "lon": "-1.4608999491"
    },
    {
      "label": "Bromborough (BOM)",
      "crs": "BOM",
      "lat": "53.3218460083",
      "lon": "-2.9877884388"
    },
    {
      "label": "Bromborough Rake (BMR)",
      "crs": "BMR",
      "lat": "53.3299255371",
      "lon": "-2.9894766808"
    },
    {
      "label": "Bromley Cross (BMC)",
      "crs": "BMC",
      "lat": "53.6137657166",
      "lon": "-2.4096002579"
    },
    {
      "label": "Bromley North (BMN)",
      "crs": "BMN",
      "lat": "51.4089546204",
      "lon": "0.0173155237"
    },
    {
      "label": "Bromley South (BMS)",
      "crs": "BMS",
      "lat": "51.3999404907",
      "lon": "0.0183566473"
    },
    {
      "label": "Bromsgrove (BMV)",
      "crs": "BMV",
      "lat": "52.3227043152",
      "lon": "-2.0483744144"
    },
    {
      "label": "Brondesbury (BSY)",
      "crs": "BSY",
      "lat": "51.5456314087",
      "lon": "-0.2030812800"
    },
    {
      "label": "Brondesbury Park (BSP)",
      "crs": "BSP",
      "lat": "51.5403518677",
      "lon": "-0.2104998231"
    },
    {
      "label": "Brookmans Park (BPK)",
      "crs": "BPK",
      "lat": "51.7210617065",
      "lon": "-0.2045455575"
    },
    {
      "label": "Brookwood (BKO)",
      "crs": "BKO",
      "lat": "51.3037567139",
      "lon": "-0.6357446909"
    },
    {
      "label": "Broome (BME)",
      "crs": "BME",
      "lat": "52.4227790833",
      "lon": "-2.8852179050"
    },
    {
      "label": "Broomfleet (BMF)",
      "crs": "BMF",
      "lat": "53.7401504517",
      "lon": "-0.6733459830"
    },
    {
      "label": "Brora (BRA)",
      "crs": "BRA",
      "lat": "58.0129318237",
      "lon": "-3.8522951603"
    },
    {
      "label": "Brough (BUH)",
      "crs": "BUH",
      "lat": "53.7272453308",
      "lon": "-0.5794391632"
    },
    {
      "label": "Broughty Ferry (BYF)",
      "crs": "BYF",
      "lat": "56.4671516418",
      "lon": "-2.8731496334"
    },
    {
      "label": "Broxbourne (BXB)",
      "crs": "BXB",
      "lat": "51.7469139099",
      "lon": "-0.0110779414"
    },
    {
      "label": "Bruce Grove (BCV)",
      "crs": "BCV",
      "lat": "51.5929756165",
      "lon": "-0.0698302984"
    },
    {
      "label": "Brundall (BDA)",
      "crs": "BDA",
      "lat": "52.6198043823",
      "lon": "1.4392751455"
    },
    {
      "label": "Brundall Gardens (BGA)",
      "crs": "BGA",
      "lat": "52.6230964661",
      "lon": "1.4188420773"
    },
    {
      "label": "Brunstane (BSU)",
      "crs": "BSU",
      "lat": "55.9425048828",
      "lon": "-3.1009778976"
    },
    {
      "label": "Brunswick (BRW)",
      "crs": "BRW",
      "lat": "53.3821754456",
      "lon": "-2.9756531715"
    },
    {
      "label": "Bruton (BRU)",
      "crs": "BRU",
      "lat": "51.1116294861",
      "lon": "-2.4470791817"
    },
    {
      "label": "Bryn (BYN)",
      "crs": "BYN",
      "lat": "53.4994506836",
      "lon": "-2.6481838226"
    },
    {
      "label": "Buckenham (BUC)",
      "crs": "BUC",
      "lat": "52.5977630615",
      "lon": "1.4703381062"
    },
    {
      "label": "Buckley (BCK)",
      "crs": "BCK",
      "lat": "53.1630477905",
      "lon": "-3.0559363365"
    },
    {
      "label": "Bucknell (BUK)",
      "crs": "BUK",
      "lat": "52.3575592041",
      "lon": "-2.9485247135"
    },
    {
      "label": "Bugle (BGL)",
      "crs": "BGL",
      "lat": "50.3999443054",
      "lon": "-4.7918419838"
    },
    {
      "label": "Builth Road (BHR)",
      "crs": "BHR",
      "lat": "52.1693267822",
      "lon": "-3.4270451069"
    },
    {
      "label": "Bulwell (BLW)",
      "crs": "BLW",
      "lat": "52.9997177124",
      "lon": "-1.1962335110"
    },
    {
      "label": "Bures (BUE)",
      "crs": "BUE",
      "lat": "51.9709930420",
      "lon": "0.7690051198"
    },
    {
      "label": "Burgess Hill (BUG)",
      "crs": "BUG",
      "lat": "50.9536132812",
      "lon": "-0.1277690679"
    },
    {
      "label": "Burley Park (BUY)",
      "crs": "BUY",
      "lat": "53.8121757507",
      "lon": "-1.5779124498"
    },
    {
      "label": "Burley-in-Wharfedale (BUW)",
      "crs": "BUW",
      "lat": "53.9083900452",
      "lon": "-1.7535216808"
    },
    {
      "label": "Burnage (BNA)",
      "crs": "BNA",
      "lat": "53.4219245911",
      "lon": "-2.2151401043"
    },
    {
      "label": "Burneside (BUD)",
      "crs": "BUD",
      "lat": "54.3553085327",
      "lon": "-2.7662155628"
    },
    {
      "label": "Burnham (BNM)",
      "crs": "BNM",
      "lat": "51.5235023499",
      "lon": "-0.6463698149"
    },
    {
      "label": "Burnham-on-Crouch (BUU)",
      "crs": "BUU",
      "lat": "51.6336631775",
      "lon": "0.8140451908"
    },
    {
      "label": "Burnley Barracks (BUB)",
      "crs": "BUB",
      "lat": "53.7912483215",
      "lon": "-2.2580108643"
    },
    {
      "label": "Burnley Central (BNC)",
      "crs": "BNC",
      "lat": "53.7935218811",
      "lon": "-2.2449693680"
    },
    {
      "label": "Burnley Manchester Road (BYM)",
      "crs": "BYM",
      "lat": "53.7849769592",
      "lon": "-2.2488658428"
    },
    {
      "label": "Burnside (BUI)",
      "crs": "BUI",
      "lat": "55.8170700073",
      "lon": "-4.2039861679"
    },
    {
      "label": "Burntisland (BTS)",
      "crs": "BTS",
      "lat": "56.0570678711",
      "lon": "-3.2331922054"
    },
    {
      "label": "Burscough Bridge (BCB)",
      "crs": "BCB",
      "lat": "53.6052131653",
      "lon": "-2.8417418003"
    },
    {
      "label": "Burscough Junction (BCJ)",
      "crs": "BCJ",
      "lat": "53.5980339050",
      "lon": "-2.8400878906"
    },
    {
      "label": "Bursledon (BUO)",
      "crs": "BUO",
      "lat": "50.8843803406",
      "lon": "-1.3052814007"
    },
    {
      "label": "Burton Joyce (BUJ)",
      "crs": "BUJ",
      "lat": "52.9840927124",
      "lon": "-1.0407134295"
    },
    {
      "label": "Burton-on-Trent (BUT)",
      "crs": "BUT",
      "lat": "52.8058319092",
      "lon": "-1.6424620152"
    },
    {
      "label": "Bury St Edmunds (BSE)",
      "crs": "BSE",
      "lat": "52.2537803650",
      "lon": "0.7133101821"
    },
    {
      "label": "Busby (BUS)",
      "crs": "BUS",
      "lat": "55.7803306580",
      "lon": "-4.2621946335"
    },
    {
      "label": "Bush Hill Park (BHK)",
      "crs": "BHK",
      "lat": "51.6415252686",
      "lon": "-0.0692142546"
    },
    {
      "label": "Bushey (BSH)",
      "crs": "BSH",
      "lat": "51.6457519531",
      "lon": "-0.3853236437"
    },
    {
      "label": "Butlers Lane (BUL)",
      "crs": "BUL",
      "lat": "52.5924797058",
      "lon": "-1.8380144835"
    },
    {
      "label": "Buxted (BXD)",
      "crs": "BXD",
      "lat": "50.9900093079",
      "lon": "0.1314477175"
    },
    {
      "label": "Buxton (BUX)",
      "crs": "BUX",
      "lat": "53.2607421875",
      "lon": "-1.9128706455"
    },
    {
      "label": "Byfleet & New Haw (BFN)",
      "crs": "BFN",
      "lat": "51.3497962952",
      "lon": "-0.4813819528"
    },
    {
      "label": "Bynea (BYE)",
      "crs": "BYE",
      "lat": "51.6720314026",
      "lon": "-4.0989007950"
    },
    {
      "label": "Cadoxton (CAD)",
      "crs": "CAD",
      "lat": "51.4122810364",
      "lon": "-3.2489075661"
    },
    {
      "label": "Caergwrle (CGW)",
      "crs": "CGW",
      "lat": "53.1078834534",
      "lon": "-3.0329232216"
    },
    {
      "label": "Caerphilly (CPH)",
      "crs": "CPH",
      "lat": "51.5715713501",
      "lon": "-3.2184920311"
    },
    {
      "label": "Caersws (CWS)",
      "crs": "CWS",
      "lat": "52.5161361694",
      "lon": "-3.4325089455"
    },
    {
      "label": "Caldercruix (CAC)",
      "crs": "CAC",
      "lat": "55.8879814148",
      "lon": "-3.8878099918"
    },
    {
      "label": "Caldicot (CDT)",
      "crs": "CDT",
      "lat": "51.5847854614",
      "lon": "-2.7605850697"
    },
    {
      "label": "Caledonian Rd & Barnsbury (CIR)",
      "crs": "CIR",
      "lat": "51.5433540344",
      "lon": "-0.1151973084"
    },
    {
      "label": "Calstock (CSK)",
      "crs": "CSK",
      "lat": "50.4975700378",
      "lon": "-4.2087111473"
    },
    {
      "label": "Cam & Dursley (CDU)",
      "crs": "CDU",
      "lat": "51.7176170349",
      "lon": "-2.3590967655"
    },
    {
      "label": "Camberley (CAM)",
      "crs": "CAM",
      "lat": "51.3364601135",
      "lon": "-0.7446697354"
    },
    {
      "label": "Camborne (CBN)",
      "crs": "CBN",
      "lat": "50.2104225159",
      "lon": "-5.2974720001"
    },
    {
      "label": "Cambridge (CBG)",
      "crs": "CBG",
      "lat": "52.1945762634",
      "lon": "0.1375545561"
    },
    {
      "label": "Cambridge Heath (CBH)",
      "crs": "CBH",
      "lat": "51.5319786072",
      "lon": "-0.0572725572"
    },
    {
      "label": "Cambuslang (CBL)",
      "crs": "CBL",
      "lat": "55.8195991516",
      "lon": "-4.1729993820"
    },
    {
      "label": "Camden Road (CMD)",
      "crs": "CMD",
      "lat": "51.5419464111",
      "lon": "-0.1397720426"
    },
    {
      "label": "Camelon (CMO)",
      "crs": "CMO",
      "lat": "56.0060806274",
      "lon": "-3.8176004887"
    },
    {
      "label": "Canada Water (ZCW)",
      "crs": "ZCW",
      "lat": "51.4983329773",
      "lon": "-0.0500000007"
    },
    {
      "label": "Canley (CNL)",
      "crs": "CNL",
      "lat": "52.3992538452",
      "lon": "-1.5475765467"
    },
    {
      "label": "Cannock (CAO)",
      "crs": "CAO",
      "lat": "52.6861763000",
      "lon": "-2.0221462250"
    },
    {
      "label": "Canonbury (CNN)",
      "crs": "CNN",
      "lat": "51.5483741760",
      "lon": "-0.0919120684"
    },
    {
      "label": "Canterbury East (CBE)",
      "crs": "CBE",
      "lat": "51.2742729187",
      "lon": "1.0759769678"
    },
    {
      "label": "Canterbury West (CBW)",
      "crs": "CBW",
      "lat": "51.2842750549",
      "lon": "1.0753117800"
    },
    {
      "label": "Cantley (CNY)",
      "crs": "CNY",
      "lat": "52.5787696838",
      "lon": "1.5134260654"
    },
    {
      "label": "Capenhurst (CPU)",
      "crs": "CPU",
      "lat": "53.2601890564",
      "lon": "-2.9422917366"
    },
    {
      "label": "Carbis Bay (CBB)",
      "crs": "CBB",
      "lat": "50.1971511841",
      "lon": "-5.4640378952"
    },
    {
      "label": "Cardenden (CDD)",
      "crs": "CDD",
      "lat": "56.1412467957",
      "lon": "-3.2616364956"
    },
    {
      "label": "Cardiff Bay (CDB)",
      "crs": "CDB",
      "lat": "51.4671096802",
      "lon": "-3.1664268970"
    },
    {
      "label": "Cardiff Central (CDF)",
      "crs": "CDF",
      "lat": "51.4760284424",
      "lon": "-3.1793115139"
    },
    {
      "label": "Cardiff Queen Street (CDQ)",
      "crs": "CDQ",
      "lat": "51.4819641113",
      "lon": "-3.1702044010"
    },
    {
      "label": "Cardonald (CDO)",
      "crs": "CDO",
      "lat": "55.8525543213",
      "lon": "-4.3406877518"
    },
    {
      "label": "Cardross (CDR)",
      "crs": "CDR",
      "lat": "55.9603691101",
      "lon": "-4.6530604362"
    },
    {
      "label": "Carfin (CRF)",
      "crs": "CRF",
      "lat": "55.8073310852",
      "lon": "-3.9562547207"
    },
    {
      "label": "Cark (CAK)",
      "crs": "CAK",
      "lat": "54.1775665283",
      "lon": "-2.9728300571"
    },
    {
      "label": "Carlisle (CAR)",
      "crs": "CAR",
      "lat": "54.8906478882",
      "lon": "-2.9338102341"
    },
    {
      "label": "Carlton (CTO)",
      "crs": "CTO",
      "lat": "52.9649772644",
      "lon": "-1.0792531967"
    },
    {
      "label": "Carluke (CLU)",
      "crs": "CLU",
      "lat": "55.7312545776",
      "lon": "-3.8489232063"
    },
    {
      "label": "Carmarthen (CMN)",
      "crs": "CMN",
      "lat": "51.8533592224",
      "lon": "-4.3059859276"
    },
    {
      "label": "Carmyle (CML)",
      "crs": "CML",
      "lat": "55.8343315125",
      "lon": "-4.1581707001"
    },
    {
      "label": "Carnforth (CNF)",
      "crs": "CNF",
      "lat": "54.1296920776",
      "lon": "-2.7712285519"
    },
    {
      "label": "Carnoustie (CAN)",
      "crs": "CAN",
      "lat": "56.5005531311",
      "lon": "-2.7065927982"
    },
    {
      "label": "Carntyne (CAY)",
      "crs": "CAY",
      "lat": "55.8550376892",
      "lon": "-4.1786527634"
    },
    {
      "label": "Carpenders Park (CPK)",
      "crs": "CPK",
      "lat": "51.6283493042",
      "lon": "-0.3859415948"
    },
    {
      "label": "Carrbridge (CAG)",
      "crs": "CAG",
      "lat": "57.2795372009",
      "lon": "-3.8280074596"
    },
    {
      "label": "Carshalton (CSH)",
      "crs": "CSH",
      "lat": "51.3684539795",
      "lon": "-0.1663661152"
    },
    {
      "label": "Carshalton Beeches (CSB)",
      "crs": "CSB",
      "lat": "51.3574104309",
      "lon": "-0.1697947830"
    },
    {
      "label": "Carstairs (CRS)",
      "crs": "CRS",
      "lat": "55.6910362244",
      "lon": "-3.6684668064"
    },
    {
      "label": "Cartsdyke (CDY)",
      "crs": "CDY",
      "lat": "55.9422035217",
      "lon": "-4.7315802574"
    },
    {
      "label": "Castle Bar Park (CBP)",
      "crs": "CBP",
      "lat": "51.5229797363",
      "lon": "-0.3314045072"
    },
    {
      "label": "Castle Cary (CLC)",
      "crs": "CLC",
      "lat": "51.0998039246",
      "lon": "-2.5228021145"
    },
    {
      "label": "Castleford (CFD)",
      "crs": "CFD",
      "lat": "53.7240943909",
      "lon": "-1.3546562195"
    },
    {
      "label": "Castleton (CAS)",
      "crs": "CAS",
      "lat": "53.5918617249",
      "lon": "-2.1782317162"
    },
    {
      "label": "Castleton Moor (CSM)",
      "crs": "CSM",
      "lat": "54.4672889709",
      "lon": "-0.9466479421"
    },
    {
      "label": "Caterham (CAT)",
      "crs": "CAT",
      "lat": "51.2821388245",
      "lon": "-0.0783027634"
    },
    {
      "label": "Catford (CTF)",
      "crs": "CTF",
      "lat": "51.4444084167",
      "lon": "-0.0263097677"
    },
    {
      "label": "Catford Bridge (CFB)",
      "crs": "CFB",
      "lat": "51.4447441101",
      "lon": "-0.0248562042"
    },
    {
      "label": "Cathays (CYS)",
      "crs": "CYS",
      "lat": "51.4888992310",
      "lon": "-3.1786930561"
    },
    {
      "label": "Cathcart (CCT)",
      "crs": "CCT",
      "lat": "55.8176612854",
      "lon": "-4.2605295181"
    },
    {
      "label": "Cattal (CTL)",
      "crs": "CTL",
      "lat": "53.9974975586",
      "lon": "-1.3197727203"
    },
    {
      "label": "Causeland (CAU)",
      "crs": "CAU",
      "lat": "50.4056816101",
      "lon": "-4.4664855003"
    },
    {
      "label": "Cefn-y-Bedd (CYB)",
      "crs": "CYB",
      "lat": "53.0988197327",
      "lon": "-3.0310633183"
    },
    {
      "label": "Chadwell Heath (CTH)",
      "crs": "CTH",
      "lat": "51.5680427551",
      "lon": "0.1289703548"
    },
    {
      "label": "Chafford Hundred (CFH)",
      "crs": "CFH",
      "lat": "51.4856452942",
      "lon": "0.2872366607"
    },
    {
      "label": "Chalfont and Latimer (CFO)",
      "crs": "CFO",
      "lat": "51.6681098938",
      "lon": "-0.5605190992"
    },
    {
      "label": "Chalkwell (CHW)",
      "crs": "CHW",
      "lat": "51.5387229919",
      "lon": "0.6706052423"
    },
    {
      "label": "Chandlers Ford (CFR)",
      "crs": "CFR",
      "lat": "50.9829978943",
      "lon": "-1.3844010830"
    },
    {
      "label": "Chapel-en-le-Frith (CEF)",
      "crs": "CEF",
      "lat": "53.3122444153",
      "lon": "-1.9187695980"
    },
    {
      "label": "Chapelton (CPN)",
      "crs": "CPN",
      "lat": "51.0158195496",
      "lon": "-4.0243706703"
    },
    {
      "label": "Chapeltown (CLN)",
      "crs": "CLN",
      "lat": "53.4623527527",
      "lon": "-1.4662685394"
    },
    {
      "label": "Chappel & Wakes Colne (CWC)",
      "crs": "CWC",
      "lat": "51.9259185791",
      "lon": "0.7585189342"
    },
    {
      "label": "Charing (CHG)",
      "crs": "CHG",
      "lat": "51.2081031799",
      "lon": "0.7903455496"
    },
    {
      "label": "Charing Cross (Glasgow) (CHC)",
      "crs": "CHC",
      "lat": "55.8646659851",
      "lon": "-4.2698130608"
    },
    {
      "label": "Charlbury (CBY)",
      "crs": "CBY",
      "lat": "51.8724365234",
      "lon": "-1.4896970987"
    },
    {
      "label": "Charlton (CTN)",
      "crs": "CTN",
      "lat": "51.4868659973",
      "lon": "0.0309803393"
    },
    {
      "label": "Chartham (CRT)",
      "crs": "CRT",
      "lat": "51.2572708130",
      "lon": "1.0180604458"
    },
    {
      "label": "Chassen Road (CSR)",
      "crs": "CSR",
      "lat": "53.4461784363",
      "lon": "-2.3682372570"
    },
    {
      "label": "Chatelherault (CTE)",
      "crs": "CTE",
      "lat": "55.7652091980",
      "lon": "-4.0046610832"
    },
    {
      "label": "Chatham (CTM)",
      "crs": "CTM",
      "lat": "51.3803787231",
      "lon": "0.5211581588"
    },
    {
      "label": "Chathill (CHT)",
      "crs": "CHT",
      "lat": "55.5367317200",
      "lon": "-1.7063781023"
    },
    {
      "label": "Cheadle Hulme (CHU)",
      "crs": "CHU",
      "lat": "53.3759460449",
      "lon": "-2.1883022785"
    },
    {
      "label": "Cheam (CHE)",
      "crs": "CHE",
      "lat": "51.3554801941",
      "lon": "-0.2141665220"
    },
    {
      "label": "Cheddington (CED)",
      "crs": "CED",
      "lat": "51.8579254150",
      "lon": "-0.6621462703"
    },
    {
      "label": "Chelford (CEL)",
      "crs": "CEL",
      "lat": "53.2708663940",
      "lon": "-2.2796087265"
    },
    {
      "label": "Chelmsford (CHM)",
      "crs": "CHM",
      "lat": "51.7363815308",
      "lon": "0.4685803354"
    },
    {
      "label": "Chelsfield (CLD)",
      "crs": "CLD",
      "lat": "51.3562545776",
      "lon": "0.1090798900"
    },
    {
      "label": "Cheltenham Spa (CNM)",
      "crs": "CNM",
      "lat": "51.8973999023",
      "lon": "-2.0996258259"
    },
    {
      "label": "Chepstow (CPW)",
      "crs": "CPW",
      "lat": "51.6401748657",
      "lon": "-2.6719141006"
    },
    {
      "label": "Cherry Tree (CYT)",
      "crs": "CYT",
      "lat": "53.7328796387",
      "lon": "-2.5183854103"
    },
    {
      "label": "Chertsey (CHY)",
      "crs": "CHY",
      "lat": "51.3871650696",
      "lon": "-0.5096656084"
    },
    {
      "label": "Cheshunt (CHN)",
      "crs": "CHN",
      "lat": "51.7028770447",
      "lon": "-0.0239515845"
    },
    {
      "label": "Chessington North (CSN)",
      "crs": "CSN",
      "lat": "51.3642616272",
      "lon": "-0.3004050553"
    },
    {
      "label": "Chessington South (CSS)",
      "crs": "CSS",
      "lat": "51.3565521240",
      "lon": "-0.3081592023"
    },
    {
      "label": "Chester (CTR)",
      "crs": "CTR",
      "lat": "53.1968383789",
      "lon": "-2.8801255226"
    },
    {
      "label": "Chester Road (CRD)",
      "crs": "CRD",
      "lat": "52.5356559753",
      "lon": "-1.8324737549"
    },
    {
      "label": "Chester-le-Street (CLS)",
      "crs": "CLS",
      "lat": "54.8545989990",
      "lon": "-1.5780187845"
    },
    {
      "label": "Chesterfield (CHD)",
      "crs": "CHD",
      "lat": "53.2382392883",
      "lon": "-1.4201090336"
    },
    {
      "label": "Chestfield & Swalecliffe (CSW)",
      "crs": "CSW",
      "lat": "51.3603286743",
      "lon": "1.0677062273"
    },
    {
      "label": "Chetnole (CNO)",
      "crs": "CNO",
      "lat": "50.8664855957",
      "lon": "-2.5740461349"
    },
    {
      "label": "Chichester (CCH)",
      "crs": "CCH",
      "lat": "50.8320388794",
      "lon": "-0.7817525864"
    },
    {
      "label": "Chilham (CIL)",
      "crs": "CIL",
      "lat": "51.2446136475",
      "lon": "0.9759154916"
    },
    {
      "label": "Chilworth (CHL)",
      "crs": "CHL",
      "lat": "51.2152099609",
      "lon": "-0.5248183608"
    },
    {
      "label": "Chingford (CHI)",
      "crs": "CHI",
      "lat": "51.6330947876",
      "lon": "0.0099060861"
    },
    {
      "label": "Chinley (CLY)",
      "crs": "CLY",
      "lat": "53.3403053284",
      "lon": "-1.9443989992"
    },
    {
      "label": "Chippenham (CPM)",
      "crs": "CPM",
      "lat": "51.4624862671",
      "lon": "-2.1154026985"
    },
    {
      "label": "Chipstead (CHP)",
      "crs": "CHP",
      "lat": "51.3093185425",
      "lon": "-0.1694277674"
    },
    {
      "label": "Chirk (CRK)",
      "crs": "CRK",
      "lat": "52.9331016541",
      "lon": "-3.0656557083"
    },
    {
      "label": "Chislehurst (CIT)",
      "crs": "CIT",
      "lat": "51.4055557251",
      "lon": "0.0574269108"
    },
    {
      "label": "Chiswick (CHK)",
      "crs": "CHK",
      "lat": "51.4811401367",
      "lon": "-0.2678349614"
    },
    {
      "label": "Cholsey (CHO)",
      "crs": "CHO",
      "lat": "51.5702018738",
      "lon": "-1.1580185890"
    },
    {
      "label": "Chorley (CRL)",
      "crs": "CRL",
      "lat": "53.6525535583",
      "lon": "-2.6267752647"
    },
    {
      "label": "Chorleywood (CLW)",
      "crs": "CLW",
      "lat": "51.6542472839",
      "lon": "-0.5183116794"
    },
    {
      "label": "Christchurch (CHR)",
      "crs": "CHR",
      "lat": "50.7382011414",
      "lon": "-1.7845495939"
    },
    {
      "label": "Christs Hospital (CHH)",
      "crs": "CHH",
      "lat": "51.0506782532",
      "lon": "-0.3635470867"
    },
    {
      "label": "Church & Oswaldtwistle (CTW)",
      "crs": "CTW",
      "lat": "53.7503509521",
      "lon": "-2.3909099102"
    },
    {
      "label": "Church Fenton (CHF)",
      "crs": "CHF",
      "lat": "53.8263397217",
      "lon": "-1.2274413109"
    },
    {
      "label": "Church Stretton (CTT)",
      "crs": "CTT",
      "lat": "52.5374336243",
      "lon": "-2.8037018776"
    },
    {
      "label": "Cilmeri (CIM)",
      "crs": "CIM",
      "lat": "52.1505317688",
      "lon": "-3.4565544128"
    },
    {
      "label": "City Thameslink (CTK)",
      "crs": "CTK",
      "lat": "51.5139389038",
      "lon": "-0.1035845503"
    },
    {
      "label": "Clacton-on-Sea (CLT)",
      "crs": "CLT",
      "lat": "51.7940139771",
      "lon": "1.1541053057"
    },
    {
      "label": "Clandon (CLA)",
      "crs": "CLA",
      "lat": "51.2640037537",
      "lon": "-0.5027593970"
    },
    {
      "label": "Clapham (North Yorkshire) (CPY)",
      "crs": "CPY",
      "lat": "54.1054000854",
      "lon": "-2.4098417759"
    },
    {
      "label": "Clapham High Street (CLP)",
      "crs": "CLP",
      "lat": "51.4654846191",
      "lon": "-0.1325177103"
    },
    {
      "label": "Clapham Junction (CLJ)",
      "crs": "CLJ",
      "lat": "51.4641914368",
      "lon": "-0.1702473462"
    },
    {
      "label": "Clapton (CPT)",
      "crs": "CPT",
      "lat": "51.5616493225",
      "lon": "-0.0570179559"
    },
    {
      "label": "Clarbeston Road (CLR)",
      "crs": "CLR",
      "lat": "51.8516731262",
      "lon": "-4.8835744858"
    },
    {
      "label": "Clarkston (CKS)",
      "crs": "CKS",
      "lat": "55.7893409729",
      "lon": "-4.2756381035"
    },
    {
      "label": "Claverdon (CLV)",
      "crs": "CLV",
      "lat": "52.2771034241",
      "lon": "-1.6965667009"
    },
    {
      "label": "Claygate (CLG)",
      "crs": "CLG",
      "lat": "51.3612136841",
      "lon": "-0.3482361734"
    },
    {
      "label": "Cleethorpes (CLE)",
      "crs": "CLE",
      "lat": "53.5619239807",
      "lon": "-0.0292173922"
    },
    {
      "label": "Cleland (CEA)",
      "crs": "CEA",
      "lat": "55.8046379089",
      "lon": "-3.9102437496"
    },
    {
      "label": "Clifton (CLI)",
      "crs": "CLI",
      "lat": "53.5222358704",
      "lon": "-2.3141431808"
    },
    {
      "label": "Clifton Down (CFN)",
      "crs": "CFN",
      "lat": "51.4645423889",
      "lon": "-2.6117491722"
    },
    {
      "label": "Clitheroe (CLH)",
      "crs": "CLH",
      "lat": "53.8734817505",
      "lon": "-2.3943386078"
    },
    {
      "label": "Clock House (CLK)",
      "crs": "CLK",
      "lat": "51.4085884094",
      "lon": "-0.0406508632"
    },
    {
      "label": "Clunderwen (CUW)",
      "crs": "CUW",
      "lat": "51.8405456543",
      "lon": "-4.7318787575"
    },
    {
      "label": "Clydebank (CYK)",
      "crs": "CYK",
      "lat": "55.9006729126",
      "lon": "-4.4042181969"
    },
    {
      "label": "Coatbridge Central (CBC)",
      "crs": "CBC",
      "lat": "55.8631553650",
      "lon": "-4.0323972702"
    },
    {
      "label": "Coatbridge Sunnyside (CBS)",
      "crs": "CBS",
      "lat": "55.8669090271",
      "lon": "-4.0282778740"
    },
    {
      "label": "Coatdyke (COA)",
      "crs": "COA",
      "lat": "55.8643341064",
      "lon": "-4.0049705505"
    },
    {
      "label": "Cobham & Stoke d'Abernon (CSD)",
      "crs": "CSD",
      "lat": "51.3180999756",
      "lon": "-0.3893361688"
    },
    {
      "label": "Codsall (CSL)",
      "crs": "CSL",
      "lat": "52.6273002625",
      "lon": "-2.2017672062"
    },
    {
      "label": "Cogan (CGN)",
      "crs": "CGN",
      "lat": "51.4459915161",
      "lon": "-3.1891000271"
    },
    {
      "label": "Colchester (COL)",
      "crs": "COL",
      "lat": "51.9006156921",
      "lon": "0.8934701681"
    },
    {
      "label": "Colchester Town (CET)",
      "crs": "CET",
      "lat": "51.8865280151",
      "lon": "0.9041485786"
    },
    {
      "label": "Coleshill Parkway (CEH)",
      "crs": "CEH",
      "lat": "52.5165367126",
      "lon": "-1.7081830502"
    },
    {
      "label": "Collingham (CLM)",
      "crs": "CLM",
      "lat": "53.1441116333",
      "lon": "-0.7503831983"
    },
    {
      "label": "Collington (CLL)",
      "crs": "CLL",
      "lat": "50.8392829895",
      "lon": "0.4578783512"
    },
    {
      "label": "Colne (CNE)",
      "crs": "CNE",
      "lat": "53.8548469543",
      "lon": "-2.1811716557"
    },
    {
      "label": "Colwall (CWL)",
      "crs": "CWL",
      "lat": "52.0798759460",
      "lon": "-2.3569622040"
    },
    {
      "label": "Colwyn Bay (CWB)",
      "crs": "CWB",
      "lat": "53.2963752747",
      "lon": "-3.7254307270"
    },
    {
      "label": "Combe (CME)",
      "crs": "CME",
      "lat": "51.8323440552",
      "lon": "-1.3929018974"
    },
    {
      "label": "Commondale (COM)",
      "crs": "COM",
      "lat": "54.4818229675",
      "lon": "-0.9749839306"
    },
    {
      "label": "Congleton (CNG)",
      "crs": "CNG",
      "lat": "53.1578750610",
      "lon": "-2.1925809383"
    },
    {
      "label": "Conisbrough (CNS)",
      "crs": "CNS",
      "lat": "53.4893264771",
      "lon": "-1.2343329191"
    },
    {
      "label": "Connel Ferry (CON)",
      "crs": "CON",
      "lat": "56.4523315430",
      "lon": "-5.3854269981"
    },
    {
      "label": "Cononley (CEY)",
      "crs": "CEY",
      "lat": "53.9172706604",
      "lon": "-2.0112364292"
    },
    {
      "label": "Conway Park (CNP)",
      "crs": "CNP",
      "lat": "53.3933792114",
      "lon": "-3.0226790905"
    },
    {
      "label": "Conwy (CNW)",
      "crs": "CNW",
      "lat": "53.2801208496",
      "lon": "-3.8305416107"
    },
    {
      "label": "Cooden Beach (COB)",
      "crs": "COB",
      "lat": "50.8333663940",
      "lon": "0.4268747866"
    },
    {
      "label": "Cookham (COO)",
      "crs": "COO",
      "lat": "51.5574607849",
      "lon": "-0.7220770121"
    },
    {
      "label": "Cooksbridge (CBR)",
      "crs": "CBR",
      "lat": "50.9037513733",
      "lon": "-0.0091984244"
    },
    {
      "label": "Coombe Junction Halt (COE)",
      "crs": "COE",
      "lat": "50.4454689026",
      "lon": "-4.4819364548"
    },
    {
      "label": "Copplestone (COP)",
      "crs": "COP",
      "lat": "50.8144607544",
      "lon": "-3.7516012192"
    },
    {
      "label": "Corbridge (CRB)",
      "crs": "CRB",
      "lat": "54.9663047791",
      "lon": "-2.0185561180"
    },
    {
      "label": "Corby (COR)",
      "crs": "COR",
      "lat": "52.4889984131",
      "lon": "-0.6880000234"
    },
    {
      "label": "Corkerhill (CKH)",
      "crs": "CKH",
      "lat": "55.8374862671",
      "lon": "-4.3342876434"
    },
    {
      "label": "Corkickle (CKL)",
      "crs": "CKL",
      "lat": "54.5416793823",
      "lon": "-3.5821645260"
    },
    {
      "label": "Corpach (CPA)",
      "crs": "CPA",
      "lat": "56.8428077698",
      "lon": "-5.1219477654"
    },
    {
      "label": "Corrour (CRR)",
      "crs": "CRR",
      "lat": "56.7602005005",
      "lon": "-4.6905970573"
    },
    {
      "label": "Coryton (COY)",
      "crs": "COY",
      "lat": "51.5203704834",
      "lon": "-3.2315387726"
    },
    {
      "label": "Coseley (CSY)",
      "crs": "CSY",
      "lat": "52.5450935364",
      "lon": "-2.0857791901"
    },
    {
      "label": "Cosford (COS)",
      "crs": "COS",
      "lat": "52.6449661255",
      "lon": "-2.3061945438"
    },
    {
      "label": "Cosham (CSA)",
      "crs": "CSA",
      "lat": "50.8420829773",
      "lon": "-1.0675498247"
    },
    {
      "label": "Cottingham (CGM)",
      "crs": "CGM",
      "lat": "53.7816658020",
      "lon": "-0.4064251184"
    },
    {
      "label": "Cottingley (COT)",
      "crs": "COT",
      "lat": "53.7678337097",
      "lon": "-1.5877029896"
    },
    {
      "label": "Coulsdon South (CDS)",
      "crs": "CDS",
      "lat": "51.3158378601",
      "lon": "-0.1378843933"
    },
    {
      "label": "Coulsdon Town (CDN)",
      "crs": "CDN",
      "lat": "51.3218994141",
      "lon": "-0.1340000033"
    },
    {
      "label": "Coventry (COV)",
      "crs": "COV",
      "lat": "52.4008293152",
      "lon": "-1.5134605169"
    },
    {
      "label": "Cowden (CWN)",
      "crs": "CWN",
      "lat": "51.1556320190",
      "lon": "0.1100415513"
    },
    {
      "label": "Cowdenbeath (COW)",
      "crs": "COW",
      "lat": "56.1120834351",
      "lon": "-3.3431830406"
    },
    {
      "label": "Cradley Heath (CRA)",
      "crs": "CRA",
      "lat": "52.4696617126",
      "lon": "-2.0904903412"
    },
    {
      "label": "Craigendoran (CGD)",
      "crs": "CGD",
      "lat": "55.9947776794",
      "lon": "-4.7112317085"
    },
    {
      "label": "Cramlington (CRM)",
      "crs": "CRM",
      "lat": "55.0877685547",
      "lon": "-1.5985976458"
    },
    {
      "label": "Craven Arms (CRV)",
      "crs": "CRV",
      "lat": "52.4420127869",
      "lon": "-2.8370528221"
    },
    {
      "label": "Crawley (CRW)",
      "crs": "CRW",
      "lat": "51.1122055054",
      "lon": "-0.1866726428"
    },
    {
      "label": "Crayford (CRY)",
      "crs": "CRY",
      "lat": "51.4483299255",
      "lon": "0.1788070500"
    },
    {
      "label": "Crediton (CDI)",
      "crs": "CDI",
      "lat": "50.7834281921",
      "lon": "-3.6468799114"
    },
    {
      "label": "Cressing (CES)",
      "crs": "CES",
      "lat": "51.8523483276",
      "lon": "0.5779731870"
    },
    {
      "label": "Cressington (CSG)",
      "crs": "CSG",
      "lat": "53.3587684631",
      "lon": "-2.9120082855"
    },
    {
      "label": "Creswell (CWD)",
      "crs": "CWD",
      "lat": "53.2640380859",
      "lon": "-1.2158739567"
    },
    {
      "label": "Crewe (CRE)",
      "crs": "CRE",
      "lat": "53.0896415710",
      "lon": "-2.4329771996"
    },
    {
      "label": "Crewkerne (CKN)",
      "crs": "CKN",
      "lat": "50.8720359802",
      "lon": "-2.7784874439"
    },
    {
      "label": "Crews Hill (CWH)",
      "crs": "CWH",
      "lat": "51.6844863892",
      "lon": "-0.1068814024"
    },
    {
      "label": "Crianlarich (CNR)",
      "crs": "CNR",
      "lat": "56.3904609680",
      "lon": "-4.6184153557"
    },
    {
      "label": "Criccieth (CCC)",
      "crs": "CCC",
      "lat": "52.9184265137",
      "lon": "-4.2375283241"
    },
    {
      "label": "Cricklewood (CRI)",
      "crs": "CRI",
      "lat": "51.5587234497",
      "lon": "-0.2122312337"
    },
    {
      "label": "Croftfoot (CFF)",
      "crs": "CFF",
      "lat": "55.8182487488",
      "lon": "-4.2283172607"
    },
    {
      "label": "Crofton Park (CFT)",
      "crs": "CFT",
      "lat": "51.4551925659",
      "lon": "-0.0364964344"
    },
    {
      "label": "Cromer (CMR)",
      "crs": "CMR",
      "lat": "52.9301071167",
      "lon": "1.2928335667"
    },
    {
      "label": "Cromford (CMF)",
      "crs": "CMF",
      "lat": "53.1129493713",
      "lon": "-1.5487861633"
    },
    {
      "label": "Crookston (CKT)",
      "crs": "CKT",
      "lat": "55.8421821594",
      "lon": "-4.3659420013"
    },
    {
      "label": "Cross Gates (CRG)",
      "crs": "CRG",
      "lat": "53.8049163818",
      "lon": "-1.4502958059"
    },
    {
      "label": "Crossflatts (CFL)",
      "crs": "CFL",
      "lat": "53.8584785461",
      "lon": "-1.8448877335"
    },
    {
      "label": "Crosshill (COI)",
      "crs": "COI",
      "lat": "55.8332710266",
      "lon": "-4.2568039894"
    },
    {
      "label": "Crosskeys (CKY)",
      "crs": "CKY",
      "lat": "51.6208992004",
      "lon": "-3.1261916161"
    },
    {
      "label": "Crossmyloof (CMY)",
      "crs": "CMY",
      "lat": "55.8339309692",
      "lon": "-4.2843108177"
    },
    {
      "label": "Croston (CSO)",
      "crs": "CSO",
      "lat": "53.6675682068",
      "lon": "-2.7777490616"
    },
    {
      "label": "Crouch Hill (CRH)",
      "crs": "CRH",
      "lat": "51.5712585449",
      "lon": "-0.1169292927"
    },
    {
      "label": "Crowborough (COH)",
      "crs": "COH",
      "lat": "51.0463829041",
      "lon": "0.1880231500"
    },
    {
      "label": "Crowhurst (CWU)",
      "crs": "CWU",
      "lat": "50.8885726929",
      "lon": "0.5013549924"
    },
    {
      "label": "Crowle (CWE)",
      "crs": "CWE",
      "lat": "53.5897521973",
      "lon": "-0.8173625469"
    },
    {
      "label": "Crowthorne (CRN)",
      "crs": "CRN",
      "lat": "51.3667297363",
      "lon": "-0.8192749619"
    },
    {
      "label": "Croy (CRO)",
      "crs": "CRO",
      "lat": "55.9556655884",
      "lon": "-4.0359616280"
    },
    {
      "label": "Crystal Palace (CYP)",
      "crs": "CYP",
      "lat": "51.4181098938",
      "lon": "-0.0726045147"
    },
    {
      "label": "Cuddington (CUD)",
      "crs": "CUD",
      "lat": "53.2399330139",
      "lon": "-2.5993034840"
    },
    {
      "label": "Cuffley (CUF)",
      "crs": "CUF",
      "lat": "51.7087211609",
      "lon": "-0.1097776517"
    },
    {
      "label": "Culham (CUM)",
      "crs": "CUM",
      "lat": "51.6537933350",
      "lon": "-1.2365111113"
    },
    {
      "label": "Culrain (CUA)",
      "crs": "CUA",
      "lat": "57.9194946289",
      "lon": "-4.4042820930"
    },
    {
      "label": "Cumbernauld (CUB)",
      "crs": "CUB",
      "lat": "55.9420127869",
      "lon": "-3.9803185463"
    },
    {
      "label": "Cupar (CUP)",
      "crs": "CUP",
      "lat": "56.3169746399",
      "lon": "-3.0087585449"
    },
    {
      "label": "Curriehill (CUH)",
      "crs": "CUH",
      "lat": "55.9005584717",
      "lon": "-3.3187496662"
    },
    {
      "label": "Cuxton (CUX)",
      "crs": "CUX",
      "lat": "51.3739242554",
      "lon": "0.4617143273"
    },
    {
      "label": "Cwmbach (CMH)",
      "crs": "CMH",
      "lat": "51.7019271851",
      "lon": "-3.4137380123"
    },
    {
      "label": "Cwmbran (CWM)",
      "crs": "CWM",
      "lat": "51.6565818787",
      "lon": "-3.0162217617"
    },
    {
      "label": "Cynghordy (CYN)",
      "crs": "CYN",
      "lat": "52.0515060425",
      "lon": "-3.7482330799"
    },
    {
      "label": "Dagenham Dock (DDK)",
      "crs": "DDK",
      "lat": "51.5262947083",
      "lon": "0.1450431943"
    },
    {
      "label": "Daisy Hill (DSY)",
      "crs": "DSY",
      "lat": "53.5394668579",
      "lon": "-2.5158689022"
    },
    {
      "label": "Dalgety Bay (DAG)",
      "crs": "DAG",
      "lat": "56.0420837402",
      "lon": "-3.3677189350"
    },
    {
      "label": "Dalmally (DAL)",
      "crs": "DAL",
      "lat": "56.4011726379",
      "lon": "-4.9835443497"
    },
    {
      "label": "Dalmarnock (DAK)",
      "crs": "DAK",
      "lat": "55.8420715332",
      "lon": "-4.2177004814"
    },
    {
      "label": "Dalmeny (DAM)",
      "crs": "DAM",
      "lat": "55.9863052368",
      "lon": "-3.3816187382"
    },
    {
      "label": "Dalmuir (DMR)",
      "crs": "DMR",
      "lat": "55.9119148254",
      "lon": "-4.4266781807"
    },
    {
      "label": "Dalreoch (DLR)",
      "crs": "DLR",
      "lat": "55.9474029541",
      "lon": "-4.5778479576"
    },
    {
      "label": "Dalry (DLY)",
      "crs": "DLY",
      "lat": "55.7062110901",
      "lon": "-4.7110710144"
    },
    {
      "label": "Dalston (DLS)",
      "crs": "DLS",
      "lat": "54.8461723328",
      "lon": "-2.9888489246"
    },
    {
      "label": "Dalston Junction (DLJ)",
      "crs": "DLJ",
      "lat": "51.5453910828",
      "lon": "-0.0747400001"
    },
    {
      "label": "Dalston Kingsland (DLK)",
      "crs": "DLK",
      "lat": "51.5482902527",
      "lon": "-0.0757611170"
    },
    {
      "label": "Dalton (DLT)",
      "crs": "DLT",
      "lat": "54.1542434692",
      "lon": "-3.1790101528"
    },
    {
      "label": "Dalwhinnie (DLW)",
      "crs": "DLW",
      "lat": "56.9351577759",
      "lon": "-4.2461981773"
    },
    {
      "label": "Danby (DNY)",
      "crs": "DNY",
      "lat": "54.4664306641",
      "lon": "-0.9107192755"
    },
    {
      "label": "Danescourt (DCT)",
      "crs": "DCT",
      "lat": "51.5005073547",
      "lon": "-3.2339279652"
    },
    {
      "label": "Danzey (DZY)",
      "crs": "DZY",
      "lat": "52.3243751526",
      "lon": "-1.8212412596"
    },
    {
      "label": "Darlington (DAR)",
      "crs": "DAR",
      "lat": "54.5204505920",
      "lon": "-1.5473284721"
    },
    {
      "label": "Darnall (DAN)",
      "crs": "DAN",
      "lat": "53.3811111450",
      "lon": "-1.4106528759"
    },
    {
      "label": "Darsham (DSM)",
      "crs": "DSM",
      "lat": "52.2730140686",
      "lon": "1.5234820843"
    },
    {
      "label": "Dartford (DFD)",
      "crs": "DFD",
      "lat": "51.4473724365",
      "lon": "0.2192615569"
    },
    {
      "label": "Darton (DRT)",
      "crs": "DRT",
      "lat": "53.5883789062",
      "lon": "-1.5316518545"
    },
    {
      "label": "Darwen (DWN)",
      "crs": "DWN",
      "lat": "53.6980438232",
      "lon": "-2.4649450779"
    },
    {
      "label": "Datchet (DAT)",
      "crs": "DAT",
      "lat": "51.4830818176",
      "lon": "-0.5794160366"
    },
    {
      "label": "Davenport (DVN)",
      "crs": "DVN",
      "lat": "53.3908271790",
      "lon": "-2.1525800228"
    },
    {
      "label": "Dawlish (DWL)",
      "crs": "DWL",
      "lat": "50.5808067322",
      "lon": "-3.4646477699"
    },
    {
      "label": "Dawlish Warren (DWW)",
      "crs": "DWW",
      "lat": "50.5990524292",
      "lon": "-3.4440181255"
    },
    {
      "label": "Deal (DEA)",
      "crs": "DEA",
      "lat": "51.2230453491",
      "lon": "1.3988641500"
    },
    {
      "label": "Dean (DEN)",
      "crs": "DEN",
      "lat": "51.0422286987",
      "lon": "-1.6348094940"
    },
    {
      "label": "Deansgate (DGT)",
      "crs": "DGT",
      "lat": "53.4740943909",
      "lon": "-2.2510662079"
    },
    {
      "label": "Deganwy (DGY)",
      "crs": "DGY",
      "lat": "53.2947654724",
      "lon": "-3.8334035873"
    },
    {
      "label": "Deighton (DHN)",
      "crs": "DHN",
      "lat": "53.6688575745",
      "lon": "-1.7521972656"
    },
    {
      "label": "Delamere (DLM)",
      "crs": "DLM",
      "lat": "53.2287902832",
      "lon": "-2.6665594578"
    },
    {
      "label": "Denby Dale (DBD)",
      "crs": "DBD",
      "lat": "53.5726432800",
      "lon": "-1.6632086039"
    },
    {
      "label": "Denham (DNM)",
      "crs": "DNM",
      "lat": "51.5788345337",
      "lon": "-0.4974283576"
    },
    {
      "label": "Denham Golf Club (DGC)",
      "crs": "DGC",
      "lat": "51.5805969238",
      "lon": "-0.5177787542"
    },
    {
      "label": "Denmark Hill (DMK)",
      "crs": "DMK",
      "lat": "51.4682044983",
      "lon": "-0.0893556774"
    },
    {
      "label": "Dent (DNT)",
      "crs": "DNT",
      "lat": "54.2824172974",
      "lon": "-2.3635971546"
    },
    {
      "label": "Denton (DTN)",
      "crs": "DTN",
      "lat": "53.4569206238",
      "lon": "-2.1302263737"
    },
    {
      "label": "Deptford (DEP)",
      "crs": "DEP",
      "lat": "51.4788513184",
      "lon": "-0.0262631662"
    },
    {
      "label": "Derby (DBY)",
      "crs": "DBY",
      "lat": "52.9161796570",
      "lon": "-1.4630732536"
    },
    {
      "label": "Derby Road (DBR)",
      "crs": "DBR",
      "lat": "52.0505714417",
      "lon": "1.1826595068"
    },
    {
      "label": "Devonport (DPT)",
      "crs": "DPT",
      "lat": "50.3781929016",
      "lon": "-4.1715121269"
    },
    {
      "label": "Dewsbury (DEW)",
      "crs": "DEW",
      "lat": "53.6921043396",
      "lon": "-1.6334820986"
    },
    {
      "label": "Didcot Parkway (DID)",
      "crs": "DID",
      "lat": "51.6109542847",
      "lon": "-1.2428913116"
    },
    {
      "label": "Digby & Sowton (DIG)",
      "crs": "DIG",
      "lat": "50.7137031555",
      "lon": "-3.4738857746"
    },
    {
      "label": "Dilton Marsh (DMH)",
      "crs": "DMH",
      "lat": "51.2479896545",
      "lon": "-2.2074220181"
    },
    {
      "label": "Dinas Rhondda (DMG)",
      "crs": "DMG",
      "lat": "51.6178321838",
      "lon": "-3.4375572205"
    },
    {
      "label": "Dinas Powys (DNS)",
      "crs": "DNS",
      "lat": "51.4316635132",
      "lon": "-3.2183628082"
    },
    {
      "label": "Dingle Road (DGL)",
      "crs": "DGL",
      "lat": "51.4400520325",
      "lon": "-3.1806149483"
    },
    {
      "label": "Dingwall (DIN)",
      "crs": "DIN",
      "lat": "57.5940589905",
      "lon": "-4.4220690727"
    },
    {
      "label": "Dinsdale (DND)",
      "crs": "DND",
      "lat": "54.5147323608",
      "lon": "-1.4670673609"
    },
    {
      "label": "Dinting (DTG)",
      "crs": "DTG",
      "lat": "53.4493484497",
      "lon": "-1.9703063965"
    },
    {
      "label": "Disley (DSL)",
      "crs": "DSL",
      "lat": "53.3582000732",
      "lon": "-2.0424768925"
    },
    {
      "label": "Diss (DIS)",
      "crs": "DIS",
      "lat": "52.3736763000",
      "lon": "1.1237133741"
    },
    {
      "label": "Dockyard (DOC)",
      "crs": "DOC",
      "lat": "50.3822479248",
      "lon": "-4.1759171486"
    },
    {
      "label": "Dodworth (DOD)",
      "crs": "DOD",
      "lat": "53.5441627502",
      "lon": "-1.5309327841"
    },
    {
      "label": "Dolau (DOL)",
      "crs": "DOL",
      "lat": "52.2953567505",
      "lon": "-3.2636275291"
    },
    {
      "label": "Doleham (DLH)",
      "crs": "DLH",
      "lat": "50.9187469482",
      "lon": "0.6107028723"
    },
    {
      "label": "Dolgarrog (DLG)",
      "crs": "DLG",
      "lat": "53.1863632202",
      "lon": "-3.8226537704"
    },
    {
      "label": "Dolwyddelan (DWD)",
      "crs": "DWD",
      "lat": "53.0520324707",
      "lon": "-3.8851377964"
    },
    {
      "label": "Doncaster (DON)",
      "crs": "DON",
      "lat": "53.5214958191",
      "lon": "-1.1402344704"
    },
    {
      "label": "Dorchester South (DCH)",
      "crs": "DCH",
      "lat": "50.7092781067",
      "lon": "-2.4372503757"
    },
    {
      "label": "Dorchester West (DCW)",
      "crs": "DCW",
      "lat": "50.7109413147",
      "lon": "-2.4425487518"
    },
    {
      "label": "Dore (DOR)",
      "crs": "DOR",
      "lat": "53.3274688721",
      "lon": "-1.5154453516"
    },
    {
      "label": "Dorking (DKG)",
      "crs": "DKG",
      "lat": "51.2409286499",
      "lon": "-0.3242392540"
    },
    {
      "label": "Dorking Deepdene (DPD)",
      "crs": "DPD",
      "lat": "51.2388000488",
      "lon": "-0.3246316612"
    },
    {
      "label": "Dorking West (DKT)",
      "crs": "DKT",
      "lat": "51.2362213135",
      "lon": "-0.3399674892"
    },
    {
      "label": "Dormans (DMS)",
      "crs": "DMS",
      "lat": "51.1557846069",
      "lon": "-0.0043026251"
    },
    {
      "label": "Dorridge (DDG)",
      "crs": "DDG",
      "lat": "52.3720817566",
      "lon": "-1.7529081106"
    },
    {
      "label": "Dove Holes (DVH)",
      "crs": "DVH",
      "lat": "53.2998199463",
      "lon": "-1.8904337883"
    },
    {
      "label": "Dover Priory (DVP)",
      "crs": "DVP",
      "lat": "51.1257019043",
      "lon": "1.3053076267"
    },
    {
      "label": "Dovercourt (DVC)",
      "crs": "DVC",
      "lat": "51.9387512207",
      "lon": "1.2806291580"
    },
    {
      "label": "Dovey Junction (DVY)",
      "crs": "DVY",
      "lat": "52.5643730164",
      "lon": "-3.9239120483"
    },
    {
      "label": "Downham Market (DOW)",
      "crs": "DOW",
      "lat": "52.6041259766",
      "lon": "0.3656910360"
    },
    {
      "label": "Drayton Green (DRG)",
      "crs": "DRG",
      "lat": "51.5160293579",
      "lon": "-0.3296406865"
    },
    {
      "label": "Drayton Park (DYP)",
      "crs": "DYP",
      "lat": "51.5530929565",
      "lon": "-0.1057068929"
    },
    {
      "label": "Drem (DRM)",
      "crs": "DRM",
      "lat": "56.0051193237",
      "lon": "-2.7860462666"
    },
    {
      "label": "Driffield (DRF)",
      "crs": "DRF",
      "lat": "54.0015411377",
      "lon": "-0.4346710742"
    },
    {
      "label": "Drigg (DRI)",
      "crs": "DRI",
      "lat": "54.3769645691",
      "lon": "-3.4434108734"
    },
    {
      "label": "Droitwich Spa (DTW)",
      "crs": "DTW",
      "lat": "52.2682151794",
      "lon": "-2.1583685875"
    },
    {
      "label": "Dronfield (DRO)",
      "crs": "DRO",
      "lat": "53.3013916016",
      "lon": "-1.4687727690"
    },
    {
      "label": "Drumchapel (DMC)",
      "crs": "DMC",
      "lat": "55.9048004150",
      "lon": "-4.3628740311"
    },
    {
      "label": "Drumfrochar (DFR)",
      "crs": "DFR",
      "lat": "55.9412384033",
      "lon": "-4.7747569084"
    },
    {
      "label": "Drumgelloch (DRU)",
      "crs": "DRU",
      "lat": "55.8658256531",
      "lon": "-3.9540803432"
    },
    {
      "label": "Drumry (DMY)",
      "crs": "DMY",
      "lat": "55.9045791626",
      "lon": "-4.3854684830"
    },
    {
      "label": "Duddeston (DUD)",
      "crs": "DUD",
      "lat": "52.4883728027",
      "lon": "-1.8713864088"
    },
    {
      "label": "Dudley Port (DDP)",
      "crs": "DDP",
      "lat": "52.5246620178",
      "lon": "-2.0494801998"
    },
    {
      "label": "Duffield (DFI)",
      "crs": "DFI",
      "lat": "52.9877510071",
      "lon": "-1.4860359430"
    },
    {
      "label": "Duirinish (DRN)",
      "crs": "DRN",
      "lat": "57.3193855286",
      "lon": "-5.6920089722"
    },
    {
      "label": "Duke Street (DST)",
      "crs": "DST",
      "lat": "55.8584213257",
      "lon": "-4.2130389214"
    },
    {
      "label": "Dullingham (DUL)",
      "crs": "DUL",
      "lat": "52.2016639709",
      "lon": "0.3666716814"
    },
    {
      "label": "Dumbarton Central (DBC)",
      "crs": "DBC",
      "lat": "55.9466438293",
      "lon": "-4.5669054985"
    },
    {
      "label": "Dumbarton East (DBE)",
      "crs": "DBE",
      "lat": "55.9422340393",
      "lon": "-4.5541210175"
    },
    {
      "label": "Dumbreck (DUM)",
      "crs": "DUM",
      "lat": "55.8450164795",
      "lon": "-4.3009362221"
    },
    {
      "label": "Dumfries (DMF)",
      "crs": "DMF",
      "lat": "55.0725517273",
      "lon": "-3.6043002605"
    },
    {
      "label": "Dumpton Park (DMP)",
      "crs": "DMP",
      "lat": "51.3457069397",
      "lon": "1.4258375168"
    },
    {
      "label": "Dunbar (DUN)",
      "crs": "DUN",
      "lat": "55.9982872009",
      "lon": "-2.5133528709"
    },
    {
      "label": "Dunblane (DBL)",
      "crs": "DBL",
      "lat": "56.1858749390",
      "lon": "-3.9654839039"
    },
    {
      "label": "Duncraig (DCG)",
      "crs": "DCG",
      "lat": "57.3370857239",
      "lon": "-5.6369256973"
    },
    {
      "label": "Dundee (DEE)",
      "crs": "DEE",
      "lat": "56.4564743042",
      "lon": "-2.9712047577"
    },
    {
      "label": "Dunfermline Queen Margaret (DFL)",
      "crs": "DFL",
      "lat": "56.0805625916",
      "lon": "-3.4214675426"
    },
    {
      "label": "Dunfermline Town (DFE)",
      "crs": "DFE",
      "lat": "56.0681800842",
      "lon": "-3.4525291920"
    },
    {
      "label": "Dunkeld & Birnam (DKD)",
      "crs": "DKD",
      "lat": "56.5570411682",
      "lon": "-3.5783991814"
    },
    {
      "label": "Dunlop (DNL)",
      "crs": "DNL",
      "lat": "55.7118721008",
      "lon": "-4.5323748589"
    },
    {
      "label": "Dunrobin Castle (DNO)",
      "crs": "DNO",
      "lat": "57.9855995178",
      "lon": "-3.9494478703"
    },
    {
      "label": "Dunston (DOT)",
      "crs": "DOT",
      "lat": "54.9500503540",
      "lon": "-1.6410343647"
    },
    {
      "label": "Dunton Green (DNG)",
      "crs": "DNG",
      "lat": "51.2964897156",
      "lon": "0.1709485501"
    },
    {
      "label": "Durham (DHM)",
      "crs": "DHM",
      "lat": "54.7793922424",
      "lon": "-1.5817559958"
    },
    {
      "label": "Durrington-on-Sea (DUR)",
      "crs": "DUR",
      "lat": "50.8175239563",
      "lon": "-0.4114619195"
    },
    {
      "label": "Dyce (DYC)",
      "crs": "DYC",
      "lat": "57.2056427002",
      "lon": "-2.1923279762"
    },
    {
      "label": "Dyffryn Ardudwy (DYF)",
      "crs": "DYF",
      "lat": "52.7888641357",
      "lon": "-4.1046571732"
    },
    {
      "label": "Eaglescliffe (EAG)",
      "crs": "EAG",
      "lat": "54.5294342041",
      "lon": "-1.3494359255"
    },
    {
      "label": "Ealing Broadway (EAL)",
      "crs": "EAL",
      "lat": "51.5148468018",
      "lon": "-0.3017522693"
    },
    {
      "label": "Earlestown (ERL)",
      "crs": "ERL",
      "lat": "53.4511489868",
      "lon": "-2.6376600266"
    },
    {
      "label": "Earley (EAR)",
      "crs": "EAR",
      "lat": "51.4410934448",
      "lon": "-0.9179923534"
    },
    {
      "label": "Earlsfield (EAD)",
      "crs": "EAD",
      "lat": "51.4419898987",
      "lon": "-0.1884459406"
    },
    {
      "label": "Earlswood (Surrey) (ELD)",
      "crs": "ELD",
      "lat": "51.2273254395",
      "lon": "-0.1708216369"
    },
    {
      "label": "Earlswood (West Midlands) (EWD)",
      "crs": "EWD",
      "lat": "52.3665962219",
      "lon": "-1.8611658812"
    },
    {
      "label": "East Boldon (EBL)",
      "crs": "EBL",
      "lat": "54.9463996887",
      "lon": "-1.4201999903"
    },
    {
      "label": "East Croydon (ECR)",
      "crs": "ECR",
      "lat": "51.3750038147",
      "lon": "-0.0922765359"
    },
    {
      "label": "East Didsbury (EDY)",
      "crs": "EDY",
      "lat": "53.4093246460",
      "lon": "-2.2219965458"
    },
    {
      "label": "East Dulwich (EDW)",
      "crs": "EDW",
      "lat": "51.4613189697",
      "lon": "-0.0807176977"
    },
    {
      "label": "East Farleigh (EFL)",
      "crs": "EFL",
      "lat": "51.2552337646",
      "lon": "0.4847345650"
    },
    {
      "label": "East Garforth (EGF)",
      "crs": "EGF",
      "lat": "53.7921295166",
      "lon": "-1.3703107834"
    },
    {
      "label": "East Grinstead (EGR)",
      "crs": "EGR",
      "lat": "51.1262664795",
      "lon": "-0.0178950187"
    },
    {
      "label": "East Kilbride (EKL)",
      "crs": "EKL",
      "lat": "55.7659950256",
      "lon": "-4.1802186966"
    },
    {
      "label": "East Malling (EML)",
      "crs": "EML",
      "lat": "51.2858085632",
      "lon": "0.4392848313"
    },
    {
      "label": "East Midlands Parkway (EMD)",
      "crs": "EMD",
      "lat": "52.8629989624",
      "lon": "-1.2630000114"
    },
    {
      "label": "East Tilbury (ETL)",
      "crs": "ETL",
      "lat": "51.4848327637",
      "lon": "0.4129328728"
    },
    {
      "label": "East Worthing (EWR)",
      "crs": "EWR",
      "lat": "50.8216400146",
      "lon": "-0.3548853695"
    },
    {
      "label": "Eastbourne (EBN)",
      "crs": "EBN",
      "lat": "50.7693710327",
      "lon": "0.2812584937"
    },
    {
      "label": "Eastbrook (EBK)",
      "crs": "EBK",
      "lat": "51.4376373291",
      "lon": "-3.2061481476"
    },
    {
      "label": "Easterhouse (EST)",
      "crs": "EST",
      "lat": "55.8597412109",
      "lon": "-4.1071648598"
    },
    {
      "label": "Eastham Rake (ERA)",
      "crs": "ERA",
      "lat": "53.3075981140",
      "lon": "-2.9811711311"
    },
    {
      "label": "Eastleigh (ESL)",
      "crs": "ESL",
      "lat": "50.9692420959",
      "lon": "-1.3500889540"
    },
    {
      "label": "Eastrington (EGN)",
      "crs": "EGN",
      "lat": "53.7551765442",
      "lon": "-0.7876326442"
    },
    {
      "label": "Ebbsfleet International (EBD)",
      "crs": "EBD",
      "lat": "51.4430389404",
      "lon": "0.3208830059"
    },
    {
      "label": "Ebbw Vale Parkway (EBV)",
      "crs": "EBV",
      "lat": "51.7571449280",
      "lon": "-3.1961112022"
    },
    {
      "label": "Eccles (ECC)",
      "crs": "ECC",
      "lat": "53.4853706360",
      "lon": "-2.3345172405"
    },
    {
      "label": "Eccles Road (ECS)",
      "crs": "ECS",
      "lat": "52.4709053040",
      "lon": "0.9699294567"
    },
    {
      "label": "Eccleston Park (ECL)",
      "crs": "ECL",
      "lat": "53.4307975769",
      "lon": "-2.7800424099"
    },
    {
      "label": "Edale (EDL)",
      "crs": "EDL",
      "lat": "53.3648071289",
      "lon": "-1.8163303137"
    },
    {
      "label": "Eden Park (EDN)",
      "crs": "EDN",
      "lat": "51.3908157349",
      "lon": "-0.0266050044"
    },
    {
      "label": "Edenbridge (EBR)",
      "crs": "EBR",
      "lat": "51.2084312439",
      "lon": "0.0606540442"
    },
    {
      "label": "Edenbridge Town (EBT)",
      "crs": "EBT",
      "lat": "51.2000770569",
      "lon": "0.0671809316"
    },
    {
      "label": "Edge Hill (EDG)",
      "crs": "EDG",
      "lat": "53.4026260376",
      "lon": "-2.9464888573"
    },